ship_type,SHIPNAME,SHIP_ID,LAT,LON,dist_value,DATETIME,max_dist,max_DATETIME
Cargo,AALDERDIJK,754856,59.91311,30.04307,755.450527281399,2016-12-20T08:49:05Z,1101.0481041913285,2016-12-20T08:51:03Z
Cargo,AALDERDIJK,754856,59.91685,30.02478,1101.0481041913285,2016-12-20T08:51:03Z,1101.0481041913285,2016-12-20T08:51:03Z
Cargo,ADAMAS,270507,55.72534,20.85354,0,2016-12-14T22:55:06Z,2822.55543411074,2016-12-14T22:57:06Z
Cargo,ADAMAS,270507,55.71969,20.8096,2822.55543411074,2016-12-14T22:57:06Z,2822.55543411074,2016-12-14T22:57:06Z
Cargo,ADASTRA,732836,59.90572,30.08003,0,2016-12-20T10:17:04Z,2107.9106612387977,2016-12-20T10:25:03Z
Cargo,ADASTRA,732836,59.91283,30.04498,2107.9106612387977,2016-12-20T10:25:03Z,2107.9106612387977,2016-12-20T10:25:03Z
Cargo,ADELE,359306,55.72617,21.08768,508.0665006331251,2016-12-15T05:19:06Z,1638.2838847967903,2016-12-15T05:25:07Z
Cargo,ADELE,359306,55.7167,21.10772,1638.2838847967903,2016-12-15T05:25:07Z,1638.2838847967903,2016-12-15T05:25:07Z
Cargo,ADELINA D,188914,57.6635,11.77983,0,2016-12-15T16:03:05Z,1928.3338866701981,2016-12-15T16:05:06Z
Cargo,ADELINA D,188914,57.6565,11.75017,1928.3338866701981,2016-12-15T16:05:06Z,1928.3338866701981,2016-12-15T16:05:06Z
Cargo,AFRICAN CENDANA,687849,55.73175,20.84616,917.9475742348068,2016-12-17T08:03:06Z,965.083855625761,2016-12-17T08:05:06Z
Cargo,AFRICAN CENDANA,687849,55.73155,20.86157,965.083855625761,2016-12-17T08:05:06Z,965.083855625761,2016-12-17T08:05:06Z
Cargo,AFRICAN GROUSE,3610791,55.11497,19.95943,0,2016-12-16T19:15:03Z,87227.72588098912,2016-12-17T02:35:06Z
Cargo,AFRICAN GROUSE,3610791,55.73736,20.80092,87227.72588098912,2016-12-17T02:35:06Z,87227.72588098912,2016-12-17T02:35:06Z
Cargo,AFRICAN MAGNOLIA,3711215,54.68843,20.2122,NA,2016-12-13T22:19:03Z,62.70088133202528,2016-12-13T22:21:02Z
Cargo,AFRICAN MAGNOLIA,3711215,54.68849,20.21317,62.70088133202528,2016-12-13T22:21:02Z,62.70088133202528,2016-12-13T22:21:02Z
Cargo,AGNETHE ARCTICA,4003834,54.36948,18.665,271.5471680486951,2016-12-18T10:31:01Z,533.4208588798633,2016-12-18T10:35:02Z
Cargo,AGNETHE ARCTICA,4003834,54.36469,18.66545,533.4208588798633,2016-12-18T10:35:02Z,533.4208588798633,2016-12-18T10:35:02Z
Cargo,AGOT,377957,55.7237,21.09678,1055.61034487105,2016-12-20T06:33:06Z,1165.0284621050876,2016-12-20T06:39:06Z
Cargo,AGOT,377957,55.71589,21.10918,1165.0284621050876,2016-12-20T06:39:06Z,1165.0284621050876,2016-12-20T06:39:06Z
Cargo,AKACIA,300096,54.46332,18.9992,895.5857033779299,2016-12-16T08:11:02Z,57040.602061613,2016-12-16T11:41:02Z
Cargo,AKACIA,300096,54.66873,19.80998,57040.602061613,2016-12-16T11:41:02Z,57040.602061613,2016-12-16T11:41:02Z
Cargo,AKERDIJK,755306,54.65897,19.83891,451.4000045408982,2016-12-20T11:01:03Z,1735.225259270771,2016-12-20T11:07:04Z
Cargo,AKERDIJK,755306,54.65045,19.86151,1735.225259270771,2016-12-20T11:07:04Z,1735.225259270771,2016-12-20T11:07:04Z
Cargo,ALANA,3569217,55.86231,20.83628,0,2016-12-19T10:29:05Z,2147.9363434703855,2016-12-19T10:31:06Z
Cargo,ALANA,3569217,55.8785,20.8175,2147.9363434703855,2016-12-19T10:31:06Z,2147.9363434703855,2016-12-19T10:31:06Z
Cargo,ALANA EVITA,268459,54.66463,19.82511,0,2016-12-17T16:43:03Z,55348.78246112328,2016-12-17T19:45:01Z
Cargo,ALANA EVITA,268459,54.5491,18.98915,55348.78246112328,2016-12-17T19:45:01Z,55348.78246112328,2016-12-17T19:45:01Z
Cargo,ALEXANDER B,365485,54.68479,18.95132,0,2016-12-14T11:11:01Z,2079.0976673390937,2016-12-14T11:13:01Z
Cargo,ALEXANDER B,365485,54.66798,18.93716,2079.0976673390937,2016-12-14T11:13:01Z,2079.0976673390937,2016-12-14T11:13:01Z
Cargo,ALLEGRA,755491,59.90941,30.06115,381.9605414992636,2016-12-16T21:41:07Z,1083.9642343548655,2016-12-16T21:43:05Z
Cargo,ALLEGRA,755491,59.91301,30.04308,1083.9642343548655,2016-12-16T21:43:05Z,1083.9642343548655,2016-12-16T21:43:05Z
Cargo,ALMENDRO,463311,59.90667,30.0754,322.3847905596193,2016-12-20T08:49:05Z,990.2932565957426,2016-12-20T08:51:03Z
Cargo,ALMENDRO,463311,59.91003,30.05895,990.2932565957426,2016-12-20T08:51:03Z,990.2932565957426,2016-12-20T08:51:03Z
Cargo,AMANDA,323355,57.60248,11.78855,400.29681726035216,2016-12-20T08:51:05Z,2529.478918572064,2016-12-20T09:31:05Z
Cargo,AMANDA,323355,57.62234,11.80926,2529.478918572064,2016-12-20T09:31:05Z,2529.478918572064,2016-12-20T09:31:05Z
Cargo,AMBAL,348527,55.176,19.87267,0,2016-12-20T02:13:03Z,56610.96071721343,2016-12-20T08:55:03Z
Cargo,AMBAL,348527,54.6685,19.80217,56610.96071721343,2016-12-20T08:55:03Z,56610.96071721343,2016-12-20T08:55:03Z
Cargo,AMBER SPIRIT,205458,54.65795,19.84142,460.3934000601628,2016-12-19T15:15:03Z,4424.967045290041,2016-12-19T15:33:03Z
Cargo,AMBER SPIRIT,205458,54.63288,19.89483,4424.967045290041,2016-12-19T15:33:03Z,4424.967045290041,2016-12-19T15:33:03Z
Cargo,AMELAND,270056,54.633,19.89367,0,2016-12-18T13:17:02Z,8419.731477295083,2016-12-18T13:43:03Z
Cargo,AMELAND,270056,54.64067,20.02383,8419.731477295083,2016-12-18T13:43:03Z,8419.731477295083,2016-12-18T13:43:03Z
Cargo,AMERDIJK,754855,54.63272,19.89502,0,2016-12-13T18:37:03Z,3831.2638827691076,2016-12-13T18:39:03Z
Cargo,AMERDIJK,754855,54.655,19.8496,3831.2638827691076,2016-12-13T18:39:03Z,3831.2638827691076,2016-12-13T18:39:03Z
Cargo,ANDALUCIA STAR,375298,57.9162,11.63816,0,2016-12-14T22:55:05Z,3814.647487923321,2016-12-14T22:57:05Z
Cargo,ANDALUCIA STAR,375298,57.93881,11.68675,3814.647487923321,2016-12-14T22:57:05Z,3814.647487923321,2016-12-14T22:57:05Z
Cargo,ANETTA,365762,55.73262,20.98763,0,2016-12-16T11:13:06Z,1614.3148961009786,2016-12-16T11:15:07Z
Cargo,ANETTA,365762,55.7312,21.01329,1614.3148961009786,2016-12-16T11:15:07Z,1614.3148961009786,2016-12-16T11:15:07Z
Cargo,ANGLIA SEAWAYS,156758,54.79479,18.94468,0,2016-12-20T02:03:01Z,1508.4924451120053,2016-12-20T02:05:02Z
Cargo,ANGLIA SEAWAYS,156758,54.78513,18.9612,1508.4924451120053,2016-12-20T02:05:02Z,1508.4924451120053,2016-12-20T02:05:02Z
Cargo,ANGORA,3062,55.70655,20.80155,NA,2016-12-15T08:31:06Z,866.6873295469968,2016-12-15T08:33:07Z
Cargo,ANGORA,3062,55.70835,20.81501,866.6873295469968,2016-12-15T08:33:07Z,866.6873295469968,2016-12-15T08:33:07Z
Cargo,ANINA,188849,57.6115,11.634,0,2016-12-15T00:49:05Z,1876.305664171189,2016-12-15T00:51:05Z
Cargo,ANINA,188849,57.61167,11.6025,1876.305664171189,2016-12-15T00:51:05Z,1876.305664171189,2016-12-15T00:51:05Z
Cargo,ANJELIERSGRACHT,245589,57.94062,11.68803,0,2016-12-16T10:45:05Z,1575.489969685968,2016-12-16T10:47:05Z
Cargo,ANJELIERSGRACHT,245589,57.93012,11.67011,1575.489969685968,2016-12-16T10:47:05Z,1575.489969685968,2016-12-16T10:47:05Z
Cargo,ANNAMARIE,300161,57.61783,11.6745,0,2016-12-15T06:39:05Z,2004.8531375738978,2016-12-15T06:41:05Z
Cargo,ANNAMARIE,300161,57.63334,11.69167,2004.8531375738978,2016-12-15T06:41:05Z,2004.8531375738978,2016-12-15T06:41:05Z
Cargo,APL MERLION,726008,54.7311,18.99907,913.4706501788291,2016-12-19T18:01:02Z,24106.6611397839,2016-12-19T19:13:01Z
Cargo,APL MERLION,726008,54.51431,18.99619,24106.6611397839,2016-12-19T19:13:01Z,24106.6611397839,2016-12-19T19:13:01Z
Cargo,ARA ROTTERDAM,206635,55.00592,19.83046,0,2016-12-14T17:41:02Z,91404.03992312022,2016-12-14T19:23:06Z
Cargo,ARA ROTTERDAM,206635,55.61112,20.80787,91404.03992312022,2016-12-14T19:23:06Z,91404.03992312022,2016-12-14T19:23:06Z
Cargo,ARETHOUSA,123147,54.52544,18.99381,0,2016-12-14T10:35:02Z,1627.8113755924633,2016-12-14T10:37:02Z
Cargo,ARETHOUSA,123147,54.51316,18.98008,1627.8113755924633,2016-12-14T10:37:02Z,1627.8113755924633,2016-12-14T10:37:02Z
Cargo,ARION,4122562,54.6812,18.94167,0,2016-12-16T19:39:02Z,1347.6234251919063,2016-12-16T19:41:02Z
Cargo,ARION,4122562,54.66975,18.9348,1347.6234251919063,2016-12-16T19:41:02Z,1347.6234251919063,2016-12-16T19:41:02Z
Cargo,ARK FORWARDER,144628,57.67988,11.81698,0,2016-12-14T02:29:07Z,13904.586939479152,2016-12-17T04:57:05Z
Cargo,ARK FORWARDER,144628,57.61075,11.62227,13904.586939479152,2016-12-17T04:57:05Z,13904.586939479152,2016-12-17T04:57:05Z
Cargo,ASIAN BREEZE,729384,57.95189,11.70251,0,2016-12-13T14:27:05Z,1222.848562743969,2016-12-13T14:29:05Z
Cargo,ASIAN BREEZE,729384,57.94259,11.69145,1222.848562743969,2016-12-13T14:29:05Z,1222.848562743969,2016-12-13T14:29:05Z
Cargo,ASIAN VISION,674633,57.9181,11.60256,0,2016-12-16T20:31:04Z,1464.1809314867653,2016-12-16T20:33:05Z
Cargo,ASIAN VISION,674633,57.91386,11.62603,1464.1809314867653,2016-12-16T20:33:05Z,1464.1809314867653,2016-12-16T20:33:05Z
Cargo,ASKOE,362322,54.54969,18.81589,0,2016-12-14T19:55:01Z,3254.8913104626454,2016-12-14T19:57:02Z
Cargo,ASKOE,362322,54.52776,18.78247,3254.8913104626454,2016-12-14T19:57:02Z,3254.8913104626454,2016-12-14T19:57:02Z
Cargo,ASPEN,3350779,57.64979,11.71182,344.71746426224195,2016-12-16T03:59:06Z,1847.1228415648095,2016-12-16T04:02:20Z
Cargo,ASPEN,3350779,57.655,11.7413,1847.1228415648095,2016-12-16T04:02:20Z,1847.1228415648095,2016-12-16T04:02:20Z
Cargo,ASTRORUNNER,124278,57.60032,11.65497,585.2485190435846,2016-12-13T18:09:05Z,2281.851841167315,2016-12-20T04:39:13Z
Cargo,ASTRORUNNER,124278,57.6118,11.62322,2281.851841167315,2016-12-20T04:39:13Z,2281.851841167315,2016-12-20T04:39:13Z
Cargo,ATLANTIC CARTIER,326821,57.63336,11.69312,0,2016-12-19T04:25:06Z,1587.7328971487987,2016-12-19T04:27:05Z
Cargo,ATLANTIC CARTIER,326821,57.64611,11.70513,1587.7328971487987,2016-12-19T04:27:05Z,1587.7328971487987,2016-12-19T04:27:05Z
Cargo,ATLANTIC NAVIGATORII,758443,59.92031,30.00699,450.66891074794,2016-12-17T14:29:04Z,1269.4765157712086,2016-12-17T14:31:03Z
Cargo,ATLANTIC NAVIGATORII,758443,59.91606,30.02813,1269.4765157712086,2016-12-17T14:31:03Z,1269.4765157712086,2016-12-17T14:31:03Z
Cargo,ATLANTIC RUNNER,284882,59.90295,30.22353,131.19556904466907,2016-12-14T15:05:05Z,487.40929650108194,2016-12-14T15:07:03Z
Cargo,ATLANTIC RUNNER,284882,59.90658,30.22843,487.40929650108194,2016-12-14T15:07:03Z,487.40929650108194,2016-12-14T15:07:03Z
Cargo,ATROTOS HERACLES,415711,54.61001,18.91085,0,2016-12-17T07:35:01Z,1786.2639200073538,2016-12-17T07:37:02Z
Cargo,ATROTOS HERACLES,415711,54.62413,18.92408,1786.2639200073538,2016-12-17T07:37:02Z,1786.2639200073538,2016-12-17T07:37:02Z
Cargo,AUTO BAY,5107,59.90988,30.05801,759.9129155708875,2016-12-14T17:35:04Z,1517.0973428585955,2016-12-14T17:37:04Z
Cargo,AUTO BAY,5107,59.91502,30.0328,1517.0973428585955,2016-12-14T17:37:04Z,1517.0973428585955,2016-12-14T17:37:04Z
Cargo,AUTUMN WAVE,369043,59.91349,30.04114,406.0264982308567,2016-12-19T09:39:04Z,1097.9233417216255,2016-12-19T09:41:03Z
Cargo,AUTUMN WAVE,369043,59.91713,30.02283,1097.9233417216255,2016-12-19T09:41:03Z,1097.9233417216255,2016-12-19T09:41:03Z
Cargo,AVELONA STAR,375318,59.91896,30.01413,756.6396010608931,2016-12-17T02:45:03Z,1102.3460279368358,2016-12-17T02:47:04Z
Cargo,AVELONA STAR,375318,59.9152,30.03243,1102.3460279368358,2016-12-17T02:47:04Z,1102.3460279368358,2016-12-17T02:47:04Z
Cargo,BALDER,362369,55.66048,21.14977,141.71008133870114,2016-12-19T16:25:06Z,1787.7559260856792,2016-12-19T16:33:15Z
Cargo,BALDER,362369,55.67568,21.14048,1787.7559260856792,2016-12-19T16:33:15Z,1787.7559260856792,2016-12-19T16:33:15Z
Cargo,BALTIC HEATHER,755883,59.9126,30.04639,416.41793088668686,2016-12-20T02:17:04Z,1560.4332884703363,2016-12-20T02:19:03Z
Cargo,BALTIC HEATHER,755883,59.90739,30.07238,1560.4332884703363,2016-12-20T02:19:03Z,1560.4332884703363,2016-12-20T02:19:03Z
Cargo,BALTIC PATRIOT,756186,59.91237,30.04677,401.50010184973917,2016-12-18T05:47:04Z,1157.8945166434655,2016-12-18T05:49:03Z
Cargo,BALTIC PATRIOT,756186,59.90835,30.06593,1157.8945166434655,2016-12-18T05:49:03Z,1157.8945166434655,2016-12-18T05:49:03Z
Cargo,BALTIC PERFORMER,756187,59.91117,30.05283,0,2016-12-13T15:31:05Z,1083.2994971333383,2016-12-13T15:33:03Z
Cargo,BALTIC PERFORMER,756187,59.9075,30.07083,1083.2994971333383,2016-12-13T15:33:03Z,1083.2994971333383,2016-12-13T15:33:03Z
Cargo,BALTIC PIONEER,756184,59.91522,30.03235,0,2016-12-20T05:05:03Z,840.8741719452723,2016-12-20T05:05:04Z
Cargo,BALTIC PIONEER,756184,59.91264,30.04653,840.8741719452723,2016-12-20T05:05:04Z,840.8741719452723,2016-12-20T05:05:04Z
Cargo,BALTIC PRIME,468082,59.91137,30.23448,339.843937879798,2016-12-18T15:49:04Z,682.47218728172,2016-12-18T15:51:03Z
Cargo,BALTIC PRIME,468082,59.90623,30.22779,682.47218728172,2016-12-18T15:51:03Z,682.47218728172,2016-12-18T15:51:03Z
Cargo,BALTICA,148995,57.6458,11.70329,0,2016-12-19T14:47:05Z,1947.15433257034,2016-12-19T14:49:05Z
Cargo,BALTICA,148995,57.63161,11.68412,1947.15433257034,2016-12-19T14:49:05Z,1947.15433257034,2016-12-19T14:49:05Z
Cargo,BALTICA HAV,370709,54.57626,18.85364,0,2016-12-19T10:09:01Z,977.2204905912309,2016-12-19T10:11:02Z
Cargo,BALTICA HAV,370709,54.56953,18.84389,977.2204905912309,2016-12-19T10:11:02Z,977.2204905912309,2016-12-19T10:11:02Z
Cargo,BALTIYSK,346147,54.67425,19.80733,670.9431585603269,2016-12-17T10:03:03Z,34391.712617704725,2016-12-17T11:53:03Z
Cargo,BALTIYSK,346147,54.98353,19.80258,34391.712617704725,2016-12-17T11:53:03Z,34391.712617704725,2016-12-17T11:53:03Z
Cargo,BALTIYSKIY-202,301169,54.46891,18.71478,0,2016-12-20T09:11:07Z,5475.76275810383,2016-12-20T09:31:02Z
Cargo,BALTIYSKIY-202,301169,54.50566,18.77121,5475.76275810383,2016-12-20T09:31:02Z,5475.76275810383,2016-12-20T09:31:02Z
Cargo,BARMBEK,758658,59.91767,30.02017,558.9161736056715,2016-12-18T09:21:04Z,850.1279050925648,2016-12-18T09:23:03Z
Cargo,BARMBEK,758658,59.9205,30.006,850.1279050925648,2016-12-18T09:23:03Z,850.1279050925648,2016-12-18T09:23:03Z
Cargo,BBS SKY,372040,57.94067,11.69033,0,2016-12-16T22:15:05Z,1270.5173630839488,2016-12-16T22:17:05Z
Cargo,BBS SKY,372040,57.93184,11.67667,1270.5173630839488,2016-12-16T22:17:05Z,1270.5173630839488,2016-12-16T22:17:05Z
Cargo,BEATA,124538,54.6795,19.80137,1033.5103888367164,2016-12-16T15:31:02Z,50934.03965029969,2016-12-16T18:03:03Z
Cargo,BEATA,124538,55.13744,19.81967,50934.03965029969,2016-12-16T18:03:03Z,50934.03965029969,2016-12-16T18:03:03Z
Cargo,BEGONIA SEAWAYS,157073,57.65199,11.72603,0,2016-12-18T13:15:05Z,1940.5429275206245,2016-12-18T13:17:05Z
Cargo,BEGONIA SEAWAYS,157073,57.65701,11.75727,1940.5429275206245,2016-12-18T13:17:05Z,1940.5429275206245,2016-12-18T13:17:05Z
Cargo,BEKAU,362313,55.71568,21.1116,1084.1011739006462,2016-12-16T18:19:06Z,1591.5182577504477,2016-12-16T18:27:07Z
Cargo,BEKAU,362313,55.72531,21.0928,1591.5182577504477,2016-12-16T18:27:07Z,1591.5182577504477,2016-12-16T18:27:07Z
Cargo,BELBEK,146336,59.91674,30.02597,584.9802322385917,2016-12-15T10:07:04Z,1272.0409281396405,2016-12-15T10:09:03Z
Cargo,BELBEK,146336,59.92099,30.00478,1272.0409281396405,2016-12-15T10:09:03Z,1272.0409281396405,2016-12-15T10:09:03Z
Cargo,BF CARTAGENA,121733,59.90217,30.09717,674.5748235956831,2016-12-15T17:37:05Z,1349.109292528794,2016-12-15T17:39:03Z
Cargo,BF CARTAGENA,121733,59.90683,30.07483,1349.109292528794,2016-12-15T17:39:03Z,1349.109292528794,2016-12-15T17:39:03Z
Cargo,BF FORTALEZA,145981,59.90128,30.1009,474.84313695429466,2016-12-19T14:47:04Z,932.8697036822692,2016-12-19T14:49:03Z
Cargo,BF FORTALEZA,145981,59.8981,30.11638,932.8697036822692,2016-12-19T14:49:03Z,932.8697036822692,2016-12-19T14:49:03Z
Cargo,BF VICTORIA,363434,55.73117,20.83533,469.9203649653996,2016-12-16T20:49:06Z,1492.1492110480708,2016-12-16T20:51:06Z
Cargo,BF VICTORIA,363434,55.731,20.8115,1492.1492110480708,2016-12-16T20:51:06Z,1492.1492110480708,2016-12-16T20:51:06Z
Cargo,BIRTHE BRES,159418,57.66332,11.77958,0,2016-12-14T19:55:05Z,2727.8516556640056,2016-12-14T19:57:05Z
Cargo,BIRTHE BRES,159418,57.67889,11.81503,2727.8516556640056,2016-12-14T19:57:05Z,2727.8516556640056,2016-12-14T19:57:05Z
Cargo,BIRYUZA,348832,55.72635,21.08929,388.7379246984119,2016-12-17T23:31:06Z,1738.468225834147,2016-12-17T23:41:06Z
Cargo,BIRYUZA,348832,55.71579,21.10976,1738.468225834147,2016-12-17T23:41:06Z,1738.468225834147,2016-12-17T23:41:06Z
Cargo,BLUE CHIP,461034,55.73701,20.85337,0,2016-12-15T16:39:06Z,1519.3062527064815,2016-12-15T16:41:07Z
Cargo,BLUE CHIP,461034,55.73779,20.82914,1519.3062527064815,2016-12-15T16:41:07Z,1519.3062527064815,2016-12-15T16:41:07Z
Cargo,BLUEBILL,125326,59.90845,30.0658,319.99094241907324,2016-12-18T16:49:04Z,673.8324175747993,2016-12-18T16:51:03Z
Cargo,BLUEBILL,125326,59.90621,30.07703,673.8324175747993,2016-12-18T16:51:03Z,673.8324175747993,2016-12-18T16:51:03Z
Cargo,BOGDAN,283730,54.79357,18.98631,443.5980661706998,2016-12-14T10:13:02Z,479.74231801558494,2016-12-14T10:15:02Z
Cargo,BOGDAN,283730,54.79767,18.98398,479.74231801558494,2016-12-14T10:15:02Z,479.74231801558494,2016-12-14T10:15:02Z
Cargo,BOMAR VALOUR,714523,59.90634,30.07622,300.128183202233,2016-12-18T14:35:04Z,878.1777639404983,2016-12-18T14:37:03Z
Cargo,BOMAR VALOUR,714523,59.90339,30.09083,878.1777639404983,2016-12-18T14:37:03Z,878.1777639404983,2016-12-18T14:37:03Z
Cargo,BOMAR VANQUISH,4515761,59.91869,30.01528,0,2016-12-13T18:49:05Z,917.147324723946,2016-12-13T18:51:03Z
Cargo,BOMAR VANQUISH,4515761,59.92179,30.00003,917.147324723946,2016-12-13T18:51:03Z,917.147324723946,2016-12-13T18:51:03Z
Cargo,BOREAS,364394,59.9026,30.09501,0,2016-12-20T09:55:04Z,2312.958685177911,2016-12-20T10:03:03Z
Cargo,BOREAS,364394,59.91052,30.05665,2312.958685177911,2016-12-20T10:03:03Z,2312.958685177911,2016-12-20T10:03:03Z
Cargo,BOTNIA SEAWAYS,353499,55.73257,20.92661,0,2016-12-15T10:21:07Z,2420.174974918436,2016-12-15T10:23:07Z
Cargo,BOTNIA SEAWAYS,353499,55.73097,20.88806,2420.174974918436,2016-12-15T10:23:07Z,2420.174974918436,2016-12-15T10:23:07Z
Cargo,BRIGGA,362546,55.72816,21.07761,0,2016-12-15T22:25:06Z,1255.1097011274812,2016-12-15T22:27:07Z
Cargo,BRIGGA,362546,55.72371,21.09603,1255.1097011274812,2016-12-15T22:27:07Z,1255.1097011274812,2016-12-15T22:27:07Z
Cargo,BRIN NAVOLOK,347965,59.91186,30.04835,0,2016-12-19T16:25:04Z,1384.554120750408,2016-12-19T16:31:03Z
Cargo,BRIN NAVOLOK,347965,59.9073,30.07146,1384.554120750408,2016-12-19T16:31:03Z,1384.554120750408,2016-12-19T16:31:03Z
Cargo,CALISTO,757428,59.921,30.0035,391.2784285760054,2016-12-17T09:49:03Z,893801.1797680462,2016-12-19T02:37:02Z
Cargo,CALISTO,757428,54.50609,18.98727,893801.1797680462,2016-12-19T02:37:02Z,893801.1797680462,2016-12-19T02:37:02Z
Cargo,CAROLINA,257347,57.89535,12.03937,0,2016-12-20T08:35:16Z,6604.871390624288,2016-12-20T08:37:05Z
Cargo,CAROLINA,257347,57.94847,12.08942,6604.871390624288,2016-12-20T08:37:05Z,6604.871390624288,2016-12-20T08:37:05Z
Cargo,CATHARINA SCHULTE,150705,54.53396,18.55884,0,2016-12-16T12:55:07Z,816.0575594455969,2016-12-16T12:57:07Z
Cargo,CATHARINA SCHULTE,150705,54.52669,18.56057,816.0575594455969,2016-12-16T12:57:07Z,816.0575594455969,2016-12-16T12:57:07Z
Cargo,CEMISLE,364500,55.65137,21.156860000000002,NA,2016-12-14T01:01:05Z,154.19456540684502,2016-12-14T01:03:06Z
Cargo,CEMISLE,364500,55.65001,21.15734,154.19456540684502,2016-12-14T01:03:06Z,154.19456540684502,2016-12-14T01:03:06Z
Cargo,CEMSOL,145002,55.81088,20.8829,0,2016-12-18T15:33:07Z,1669.6328918398758,2016-12-18T15:35:06Z
Cargo,CEMSOL,145002,55.82241,20.86578,1669.6328918398758,2016-12-18T15:35:06Z,1669.6328918398758,2016-12-18T15:35:06Z
Cargo,CHARLOTTA B,758887,59.91285,30.04415,0,2016-12-20T04:35:03Z,1741.0748773350263,2016-12-20T04:39:11Z
Cargo,CHARLOTTA B,758887,59.90677,30.07293,1741.0748773350263,2016-12-20T04:39:11Z,1741.0748773350263,2016-12-20T04:39:11Z
Cargo,CHAROITE,3382564,59.90694,30.07371,575.924424222785,2016-12-20T08:55:04Z,1210.8049085763018,2016-12-20T08:57:03Z
Cargo,CHAROITE,3382564,59.91104,30.05359,1210.8049085763018,2016-12-20T08:57:03Z,1210.8049085763018,2016-12-20T08:57:03Z
Cargo,CHRISTOPHER,364743,59.89513,30.1313,504.0526571333091,2016-12-15T10:07:04Z,981.68083911339,2016-12-15T10:09:03Z
Cargo,CHRISTOPHER,364743,59.89845,30.11499,981.68083911339,2016-12-15T10:09:03Z,981.68083911339,2016-12-15T10:09:03Z
Cargo,CITY OF ROME,183675,57.61467,11.66392,0,2016-12-15T04:27:05Z,1643.83896927264,2016-12-15T04:29:06Z
Cargo,CITY OF ROME,183675,57.62616,11.68129,1643.83896927264,2016-12-15T04:29:06Z,1643.83896927264,2016-12-15T04:29:06Z
Cargo,CITY OF ROTTERDAM,461962,59.90517,30.08229,344.85936303018764,2016-12-13T21:35:05Z,1512.313103194987,2016-12-13T21:37:04Z
Cargo,CITY OF ROTTERDAM,461962,59.91029,30.05716,1512.313103194987,2016-12-13T21:37:04Z,1512.313103194987,2016-12-13T21:37:04Z
Cargo,CONMAR AVENUE,366725,59.9152,30.03259,0,2016-12-15T01:13:04Z,1121.1502720884428,2016-12-15T01:15:04Z
Cargo,CONMAR AVENUE,366725,59.91145,30.05126,1121.1502720884428,2016-12-15T01:15:04Z,1121.1502720884428,2016-12-15T01:15:04Z
Cargo,CONTAINERSHIPS-6,132925,55.69683,21.12467,0,2016-12-13T18:11:07Z,2054.2632455944995,2016-12-13T18:17:07Z
Cargo,CONTAINERSHIPS-6,132925,55.67983,21.1375,2054.2632455944995,2016-12-13T18:17:07Z,2054.2632455944995,2016-12-13T18:17:07Z
Cargo,CONTAINERSHIPS VII,858053,55.77592,20.91944,0,2016-12-18T05:49:05Z,2447.382509567464,2016-12-18T05:51:06Z
Cargo,CONTAINERSHIPS VII,858053,55.75791,20.94193,2447.382509567464,2016-12-18T05:51:06Z,2447.382509567464,2016-12-18T05:51:06Z
Cargo,DANUBE HIGHWAY,369206,59.91788,30.01961,673.7882456956116,2016-12-15T17:27:05Z,1024.1773980624148,2016-12-15T17:29:03Z
Cargo,DANUBE HIGHWAY,369206,59.92139,30.00262,1024.1773980624148,2016-12-15T17:29:03Z,1024.1773980624148,2016-12-15T17:29:03Z
Cargo,DANUBIA,312793,57.65377,11.72674,358.9330708146396,2016-12-20T09:11:05Z,5861.553748792138,2016-12-20T09:31:05Z
Cargo,DANUBIA,312793,57.61215,11.66631,5861.553748792138,2016-12-20T09:31:05Z,5861.553748792138,2016-12-20T09:31:05Z
Cargo,DELPHIS BOTHNIA,4133526,59.91929,30.01159,0,2016-12-16T09:29:04Z,844847.8431337109,2016-12-18T06:51:02Z
Cargo,DELPHIS BOTHNIA,4133526,54.67177,19.80285,844847.8431337109,2016-12-18T06:51:02Z,844847.8431337109,2016-12-18T06:51:02Z
Cargo,DIJKSGRACHT,263649,55.72404,21.02729,0,2016-12-18T13:11:05Z,1647.2510821759984,2016-12-18T13:13:06Z
Cargo,DIJKSGRACHT,263649,55.72994,21.00316,1647.2510821759984,2016-12-18T13:13:06Z,1647.2510821759984,2016-12-18T13:13:06Z
Cargo,DINTELBORG,258858,54.68567,20.22827,272.8114370382342,2016-12-15T21:31:03Z,3588.2794523563093,2016-12-15T21:47:03Z
Cargo,DINTELBORG,258858,54.68526,20.17245,3588.2794523563093,2016-12-15T21:47:03Z,3588.2794523563093,2016-12-15T21:47:03Z
Cargo,DONGEBORG,260071,54.74545,18.9621,0,2016-12-14T11:05:01Z,1366.2316505946621,2016-12-14T11:07:01Z
Cargo,DONGEBORG,260071,54.73329,18.95905,1366.2316505946621,2016-12-14T11:07:01Z,1366.2316505946621,2016-12-14T11:07:01Z
Cargo,DORNUM,359396,54.6854,18.9296,0,2016-12-15T17:39:01Z,1220.148147619368,2016-12-15T17:41:01Z
Cargo,DORNUM,359396,54.69305,18.91599,1220.148147619368,2016-12-15T17:41:01Z,1220.148147619368,2016-12-15T17:41:01Z
Cargo,DT BROSON,4003835,57.62032,11.80844,0,2016-12-15T08:05:09Z,11674.556724362812,2016-12-15T08:33:06Z
Cargo,DT BROSON,4003835,57.60002,11.61614,11674.556724362812,2016-12-15T08:33:06Z,11674.556724362812,2016-12-15T08:33:06Z
Cargo,DURBAN STAR,374258,59.91245,30.04652,292.01657162450806,2016-12-16T22:41:04Z,901.7760998556932,2016-12-16T22:43:04Z
Cargo,DURBAN STAR,374258,59.9155,30.03153,901.7760998556932,2016-12-16T22:43:04Z,901.7760998556932,2016-12-16T22:43:04Z
Cargo,E.R. TALLINN,758589,54.53731,18.75813,892.5374585397947,2016-12-18T03:47:06Z,1813.6699798397246,2016-12-18T03:49:02Z
Cargo,E.R. TALLINN,758589,54.53782,18.73003,1813.6699798397246,2016-12-18T03:49:02Z,1813.6699798397246,2016-12-18T03:49:02Z
Cargo,E.R. VISBY,758759,59.91897,30.01236,409.72229062932894,2016-12-20T03:57:04Z,1100.9878136493155,2016-12-20T03:59:03Z
Cargo,E.R. VISBY,758759,59.91523,30.03065,1100.9878136493155,2016-12-20T03:59:03Z,1100.9878136493155,2016-12-20T03:59:03Z
Cargo,EIRA,6065,59.91333,30.043,665.6823799249119,2016-12-19T14:47:04Z,1390.1226880821173,2016-12-19T14:49:03Z
Cargo,EIRA,6065,59.9085,30.066,1390.1226880821173,2016-12-19T14:49:03Z,1390.1226880821173,2016-12-19T14:49:03Z
Cargo,EKEN,182425,57.99507,12.12761,462.6444770186101,2016-12-15T05:55:08Z,1282.5245717118273,2016-12-15T05:57:05Z
Cargo,EKEN,182425,57.98357,12.12594,1282.5245717118273,2016-12-15T05:57:05Z,1282.5245717118273,2016-12-15T05:57:05Z
Cargo,EMILIA,300168,54.68553,20.174,257.34787451269824,2016-12-16T02:57:03Z,3648.4049416089883,2016-12-16T03:11:03Z
Cargo,EMILIA,300168,54.68555,20.23076,3648.4049416089883,2016-12-16T03:11:03Z,3648.4049416089883,2016-12-16T03:11:03Z
Cargo,EMOTION,254064,54.79411,18.97551,1083.2093635928118,2016-12-15T12:07:02Z,155783.58508863088,2016-12-15T19:05:06Z
Cargo,EMOTION,254064,55.73155,20.80289,155783.58508863088,2016-12-15T19:05:06Z,155783.58508863088,2016-12-15T19:05:06Z
Cargo,ENFORCER,231568,54.53519,18.59532,0,2016-12-16T12:55:07Z,2409.2201532242143,2016-12-16T12:57:07Z
Cargo,ENFORCER,231568,54.53548,18.55798,2409.2201532242143,2016-12-16T12:57:07Z,2409.2201532242143,2016-12-16T12:57:07Z
Cargo,ESL AFRICA,254047,55.84693,20.80334,0,2016-12-19T19:39:05Z,1416.9044748575338,2016-12-19T19:41:06Z
Cargo,ESL AFRICA,254047,55.83699,20.81754,1416.9044748575338,2016-12-19T19:41:06Z,1416.9044748575338,2016-12-19T19:41:06Z
Cargo,EYSTNES,182353,59.91605,30.02825,286.72182057954177,2016-12-19T14:55:04Z,934.7995902715809,2016-12-19T14:57:03Z
Cargo,EYSTNES,182353,59.91299,30.04387,934.7995902715809,2016-12-19T14:57:03Z,934.7995902715809,2016-12-19T14:57:03Z
Cargo,FALKBRIS,284471,54.6695,19.82589,0,2016-12-16T15:31:02Z,5934.0123533909145,2016-12-18T13:03:02Z
Cargo,FALKBRIS,284471,54.63331,19.89368,5934.0123533909145,2016-12-18T13:03:02Z,5934.0123533909145,2016-12-18T13:03:02Z
Cargo,FAUST,327293,57.66729,11.78699,0,2016-12-15T21:11:05Z,1546.4140725223474,2016-12-15T21:13:05Z
Cargo,FAUST,327293,57.65933,11.76567,1546.4140725223474,2016-12-15T21:13:05Z,1546.4140725223474,2016-12-15T21:13:05Z
Cargo,FEDERAL CEDAR,3919413,59.91945,30.01142,706.2343986278344,2016-12-19T14:23:04Z,1363.5593146411343,2016-12-19T14:25:03Z
Cargo,FEDERAL CEDAR,3919413,59.91489,30.03413,1363.5593146411343,2016-12-19T14:25:03Z,1363.5593146411343,2016-12-19T14:25:03Z
Cargo,FEHN LIGHT,365478,54.68486,20.17102,218.3579584432664,2016-12-16T17:53:03Z,3528.03788984941,2016-12-16T18:11:02Z
Cargo,FEHN LIGHT,365478,54.68565,20.22589,3528.03788984941,2016-12-16T18:11:02Z,3528.03788984941,2016-12-16T18:11:02Z
Cargo,FEHN POLLUX,364663,59.91251,30.04595,365.9091912914823,2016-12-20T05:33:04Z,928.9543993669454,2016-12-20T05:35:03Z
Cargo,FEHN POLLUX,364663,59.90938,30.0614,928.9543993669454,2016-12-20T05:35:03Z,928.9543993669454,2016-12-20T05:35:03Z
Cargo,FICARIA SEAWAYS,159287,57.65739,11.75459,1193.0506084430529,2016-12-15T17:01:06Z,1926.6405797759965,2016-12-15T17:05:05Z
Cargo,FICARIA SEAWAYS,159287,57.65243,11.72356,1926.6405797759965,2016-12-15T17:05:05Z,1926.6405797759965,2016-12-15T17:05:05Z
Cargo,FINNHAWK,3636,59.91904,30.01286,783.184926893793,2016-12-16T06:29:04Z,1545.9567476079499,2016-12-16T06:31:04Z
Cargo,FINNHAWK,3636,59.91375,30.03851,1545.9567476079499,2016-12-16T06:31:04Z,1545.9567476079499,2016-12-16T06:31:04Z
Cargo,FINNKRAFT,3615,54.6725,18.99983,1243.6078597494177,2016-12-13T22:31:02Z,14851.932482416274,2016-12-15T16:49:02Z
Cargo,FINNKRAFT,3615,54.79053,18.89155,14851.932482416274,2016-12-15T16:49:02Z,14851.932482416274,2016-12-15T16:49:02Z
Cargo,FINNMILL,5622,59.91888,30.01486,0,2016-12-15T09:55:04Z,771.5800221676643,2016-12-15T09:57:04Z
Cargo,FINNMILL,5622,59.92145,30.002,771.5800221676643,2016-12-15T09:57:04Z,771.5800221676643,2016-12-15T09:57:04Z
Cargo,FINNPULP,5628,54.67507,18.94194,517.0304025118493,2016-12-19T06:23:02Z,1546.8458950469303,2016-12-19T06:25:02Z
Cargo,FINNPULP,5628,54.66213,18.93311,1546.8458950469303,2016-12-19T06:25:02Z,1546.8458950469303,2016-12-19T06:25:02Z
Cargo,FINNTIDE,5558,59.89004,30.15668,424.6200154769249,2016-12-20T03:15:04Z,802.756293940592,2016-12-20T03:17:03Z
Cargo,FINNTIDE,5558,59.88737,30.17005,802.756293940592,2016-12-20T03:17:03Z,802.756293940592,2016-12-20T03:17:03Z
Cargo,FINNWAVE,5567,59.90972,30.06001,702.2400310947676,2016-12-15T17:27:05Z,1337.779091409028,2016-12-15T17:29:03Z
Cargo,FINNWAVE,5567,59.91424,30.03777,1337.779091409028,2016-12-15T17:29:03Z,1337.779091409028,2016-12-15T17:29:03Z
Cargo,FOREST,253976,54.6327,19.90475,0,2016-12-15T19:05:02Z,3125.0807568292685,2016-12-15T19:07:03Z
Cargo,FOREST,253976,54.64883,19.86498,3125.0807568292685,2016-12-15T19:07:03Z,3125.0807568292685,2016-12-15T19:07:03Z
Cargo,FORSETI,359354,55.71317,21.11337,350.0874665717086,2016-12-17T19:27:06Z,1880.8512295769099,2016-12-17T19:35:06Z
Cargo,FORSETI,359354,55.72543,21.09268,1880.8512295769099,2016-12-17T19:35:06Z,1880.8512295769099,2016-12-17T19:35:06Z
Cargo,FREDERIK,300801,55.19833,19.88672,658.9603841090614,2016-12-17T00:37:03Z,81151.38226193782,2016-12-17T05:11:06Z
Cargo,FREDERIK,300801,55.7121,20.80083,81151.38226193782,2016-12-17T05:11:06Z,81151.38226193782,2016-12-17T05:11:06Z
Cargo,FREESIA SEAWAYS,157070,57.62766,11.68233,0,2016-12-16T21:41:08Z,2819.6124963150814,2016-12-16T21:43:08Z
Cargo,FREESIA SEAWAYS,157070,57.64865,11.70891,2819.6124963150814,2016-12-16T21:43:08Z,2819.6124963150814,2016-12-16T21:43:08Z
Cargo,FREYA,226006,57.67333,11.798,0,2016-12-15T16:03:05Z,2093.7761598611446,2016-12-15T16:05:06Z
Cargo,FREYA,226006,57.66083,11.77167,2093.7761598611446,2016-12-15T16:05:06Z,2093.7761598611446,2016-12-15T16:05:06Z
Cargo,FRI OCEAN,370097,54.74643,18.75352,879.3622630267176,2016-12-13T18:51:07Z,1460.2917976490444,2016-12-13T18:53:02Z
Cargo,FRI OCEAN,370097,54.7537,18.73457,1460.2917976490444,2016-12-13T18:53:02Z,1460.2917976490444,2016-12-13T18:53:02Z
Cargo,FRI PORSGRUNN,204772,59.90734,30.07189,301.71815531708825,2016-12-14T15:05:05Z,1236.502740813044,2016-12-14T15:07:03Z
Cargo,FRI PORSGRUNN,204772,59.90305,30.09235,1236.502740813044,2016-12-14T15:07:03Z,1236.502740813044,2016-12-14T15:07:03Z
Cargo,FRI STREAM,376153,55.73333,20.90433,0,2016-12-16T22:57:06Z,2995.0275157612846,2016-12-16T22:59:06Z
Cargo,FRI STREAM,376153,55.73383,20.8565,2995.0275157612846,2016-12-16T22:59:06Z,2995.0275157612846,2016-12-16T22:59:06Z
Cargo,FRIGGA,362551,55.7151,21.10993,590.6302023202248,2016-12-18T21:47:06Z,1710.723285743383,2016-12-18T21:53:06Z
Cargo,FRIGGA,362551,55.72581,21.09032,1710.723285743383,2016-12-18T21:53:06Z,1710.723285743383,2016-12-18T21:53:06Z
Cargo,GALAN,402693,55.72813,21.07358,505.164409502778,2016-12-14T17:47:18Z,973.1050199649882,2016-12-14T17:51:06Z
Cargo,GALAN,402693,55.72822,21.05804,973.1050199649882,2016-12-14T17:51:06Z,973.1050199649882,2016-12-14T17:51:06Z
Cargo,GENCO RELIANCE,685288,55.71255,20.84023,341.48249520924594,2016-12-19T13:01:08Z,391.9195439012593,2016-12-19T13:05:06Z
Cargo,GENCO RELIANCE,685288,55.7138,20.84608,391.9195439012593,2016-12-19T13:05:06Z,391.9195439012593,2016-12-19T13:05:06Z
Cargo,GENCO THUNDER,712201,54.57504,18.88104,0,2016-12-15T20:09:01Z,1675.4099298389829,2016-12-15T20:11:02Z
Cargo,GENCO THUNDER,712201,54.58765,18.89527,1675.4099298389829,2016-12-15T20:11:02Z,1675.4099298389829,2016-12-15T20:11:02Z
Cargo,GEOR.POBEDONOSETS,348607,59.90687,30.07317,315.87407402018937,2016-12-19T04:37:05Z,968.6265678635336,2016-12-19T04:39:03Z
Cargo,GEOR.POBEDONOSETS,348607,59.90361,30.08928,968.6265678635336,2016-12-19T04:39:03Z,968.6265678635336,2016-12-19T04:39:03Z
Cargo,GRAND,402734,55.71623,21.1096,416.0717988571596,2016-12-17T17:41:06Z,1241.0032277215205,2016-12-17T17:47:06Z
Cargo,GRAND,402734,55.72425,21.09582,1241.0032277215205,2016-12-17T17:47:06Z,1241.0032277215205,2016-12-17T17:47:06Z
Cargo,GRANDE EUROPA,278706,57.9532,11.70476,0,2016-12-19T04:25:06Z,1818.8941583702963,2016-12-19T04:27:05Z
Cargo,GRANDE EUROPA,278706,57.93951,11.68789,1818.8941583702963,2016-12-19T04:27:05Z,1818.8941583702963,2016-12-19T04:27:05Z
Cargo,GRANDE MEDITERRANEO,281227,57.93787,11.68484,0,2016-12-14T15:41:05Z,2212.405089566722,2016-12-14T15:43:05Z
Cargo,GRANDE MEDITERRANEO,281227,57.92467,11.6568,2212.405089566722,2016-12-14T15:43:05Z,2212.405089566722,2016-12-14T15:43:05Z
Cargo,GREEN ATLANTIC,388399,55.72941,20.89913,0,2016-12-14T19:55:06Z,2515.294186556272,2016-12-14T19:57:06Z
Cargo,GREEN ATLANTIC,388399,55.72839,20.93926,2515.294186556272,2016-12-14T19:57:06Z,2515.294186556272,2016-12-14T19:57:06Z
Cargo,GREEN MALOY,373510,54.67597,18.97043,0,2016-12-13T23:39:01Z,3172.1022091909176,2016-12-13T23:41:02Z
Cargo,GREEN MALOY,373510,54.70317,18.98531,3172.1022091909176,2016-12-13T23:41:02Z,3172.1022091909176,2016-12-13T23:41:02Z
Cargo,GUTE,320215,57.60435,11.60661,539.8143914093107,2016-12-13T20:49:05Z,21081.161163758487,2016-12-14T19:31:05Z
Cargo,GUTE,320215,57.6969,11.91584,21081.161163758487,2016-12-14T19:31:05Z,21081.161163758487,2016-12-14T19:31:05Z
Cargo,HANNA,145692,57.6785,11.80817,0,2016-12-13T14:45:05Z,2333.5553730670317,2016-12-13T14:47:05Z
Cargo,HANNA,145692,57.66417,11.7795,2333.5553730670317,2016-12-13T14:47:05Z,2333.5553730670317,2016-12-13T14:47:05Z
Cargo,HAUKUR,182391,55.72101,21.10265,782.9300841531459,2016-12-13T23:39:06Z,1070.995405708094,2016-12-13T23:43:06Z
Cargo,HAUKUR,182391,55.72609,21.08812,1070.995405708094,2016-12-13T23:43:06Z,1070.995405708094,2016-12-13T23:43:06Z
Cargo,HEINA,691174,54.72828,18.9864,0,2016-12-16T00:23:02Z,4106.871233261076,2016-12-16T00:43:02Z
Cargo,HEINA,691174,54.6917,18.99523,4106.871233261076,2016-12-16T00:43:02Z,4106.871233261076,2016-12-16T00:43:02Z
Cargo,HEINRICH SCHEPERS,123303,59.90049,30.1049,584.7422396117269,2016-12-15T17:47:04Z,1171.7708884051267,2016-12-15T17:49:04Z
Cargo,HEINRICH SCHEPERS,123303,59.90443,30.08541,1171.7708884051267,2016-12-15T17:49:04Z,1171.7708884051267,2016-12-15T17:49:04Z
Cargo,HELGA,359267,55.72045,21.10403,175.1770755731881,2016-12-14T16:57:06Z,1210.512569232113,2016-12-14T17:03:06Z
Cargo,HELGA,359267,55.7266,21.08808,1210.512569232113,2016-12-14T17:03:06Z,1210.512569232113,2016-12-14T17:03:06Z
Cargo,HELGE,37523,57.98425,11.75003,776.9390179160321,2016-12-20T06:13:05Z,1679.9706352040962,2016-12-20T06:17:06Z
Cargo,HELGE,37523,57.99721,11.76468,1679.9706352040962,2016-12-20T06:17:06Z,1679.9706352040962,2016-12-20T06:17:06Z
Cargo,HELT,3575,54.68167,20.16127,0,2016-12-17T03:23:02Z,4167.014093746959,2016-12-17T03:39:03Z
Cargo,HELT,3575,54.68575,20.22571,4167.014093746959,2016-12-17T03:39:03Z,4167.014093746959,2016-12-17T03:39:03Z
Cargo,HENDRIKA MARGARETHA,226912,57.92032,11.60437,309.448679918102,2016-12-13T20:05:05Z,552118.9851737076,2016-12-19T16:45:06Z
Cargo,HENDRIKA MARGARETHA,226912,54.79905,18.5848,552118.9851737076,2016-12-19T16:45:06Z,552118.9851737076,2016-12-19T16:45:06Z
Cargo,HENNEKE RAMBOW,151630,59.90027,30.10585,652.0968624025544,2016-12-18T08:41:05Z,1399.3429872680963,2016-12-18T08:43:04Z
Cargo,HENNEKE RAMBOW,151630,59.90508,30.08266,1399.3429872680963,2016-12-18T08:43:04Z,1399.3429872680963,2016-12-18T08:43:04Z
Cargo,HOEGH TRIDENT,308314,57.66784,11.78583,0,2016-12-14T17:11:04Z,1598.4581936817424,2016-12-14T17:13:05Z
Cargo,HOEGH TRIDENT,308314,57.65933,11.76417,1598.4581936817424,2016-12-14T17:13:05Z,1598.4581936817424,2016-12-14T17:13:05Z
Cargo,HOOD ISLAND,368866,59.90839,30.06607,713.2955866459093,2016-12-19T14:23:04Z,1403.281840029605,2016-12-19T14:25:03Z
Cargo,HOOD ISLAND,368866,59.90368,30.08942,1403.281840029605,2016-12-19T14:25:03Z,1403.281840029605,2016-12-19T14:25:03Z
Cargo,HOOGE,205553,59.9176,30.02119,0,2016-12-15T15:03:04Z,1625.5790818808864,2016-12-15T15:07:04Z
Cargo,HOOGE,205553,59.91205,30.04817,1625.5790818808864,2016-12-15T15:07:04Z,1625.5790818808864,2016-12-15T15:07:04Z
Cargo,HVITANES,181730,59.91454,30.03516,0,2016-12-13T18:49:05Z,857.0448713342812,2016-12-13T18:51:03Z
Cargo,HVITANES,181730,59.91746,30.02093,857.0448713342812,2016-12-13T18:51:03Z,857.0448713342812,2016-12-13T18:51:03Z
Cargo,ICE RUNNER,364576,57.64557,11.70243,0,2016-12-16T23:33:05Z,1873.987846948701,2016-12-16T23:35:04Z
Cargo,ICE RUNNER,364576,57.63196,11.68386,1873.987846948701,2016-12-16T23:35:04Z,1873.987846948701,2016-12-16T23:35:04Z
Cargo,ICELAND CEMENT,375446,57.69333,11.90667,560.138185056785,2016-12-18T23:47:07Z,1119.2145211482368,2016-12-18T23:49:06Z
Cargo,ICELAND CEMENT,375446,57.68828,11.89038,1119.2145211482368,2016-12-18T23:49:06Z,1119.2145211482368,2016-12-18T23:49:06Z
Cargo,IDA H,327685,57.91244,12.0521,245.44404082305908,2016-12-16T15:43:07Z,2446.525607031488,2016-12-16T15:51:05Z
Cargo,IDA H,327685,57.93297,12.067,2446.525607031488,2016-12-16T15:51:05Z,2446.525607031488,2016-12-16T15:51:05Z
Cargo,IDUNA,122006,54.70171,18.99737,392.5725384522014,2016-12-14T15:27:02Z,6481.647053489807,2016-12-14T15:49:01Z
Cargo,IDUNA,122006,54.75998,18.99467,6481.647053489807,2016-12-14T15:49:01Z,6481.647053489807,2016-12-14T15:49:01Z
Cargo,INA LOTTE,758523,59.91727,30.02257,290.63883203512006,2016-12-14T15:11:04Z,924.2890965434881,2016-12-14T15:13:03Z
Cargo,INA LOTTE,758523,59.91415,30.03794,924.2890965434881,2016-12-14T15:13:03Z,924.2890965434881,2016-12-14T15:13:03Z
Cargo,IRIS BOLTEN,300118,55.62799,20.80453,1494.1886154101035,2016-12-15T03:51:06Z,154943.33540826204,2016-12-15T10:15:01Z
Cargo,IRIS BOLTEN,300118,54.69598,18.99102,154943.33540826204,2016-12-15T10:15:01Z,154943.33540826204,2016-12-15T10:15:01Z
Cargo,IVAN SHCHEPETOV,350926,54.6701,20.14155,5660.675587021426,2016-12-14T02:47:02Z,20270.457678434355,2016-12-14T18:27:03Z
Cargo,IVAN SHCHEPETOV,350926,54.70267,20.45184,20270.457678434355,2016-12-14T18:27:03Z,20270.457678434355,2016-12-14T18:27:03Z
Cargo,IVS KITE,732703,55.73795,20.83695,0,2016-12-14T16:07:06Z,1578.9048410031921,2016-12-14T16:09:07Z
Cargo,IVS KITE,732703,55.73813,20.81173,1578.9048410031921,2016-12-14T16:09:07Z,1578.9048410031921,2016-12-14T16:09:07Z
Cargo,JADE,270798,55.68204,20.84196,0,2016-12-14T22:55:06Z,2816.404526484485,2016-12-14T22:57:06Z
Cargo,JADE,270798,55.69443,20.88115,2816.404526484485,2016-12-14T22:57:06Z,2816.404526484485,2016-12-14T22:57:06Z
Cargo,JETTEN GBG STAD VA,323659,57.60263,11.79241,305.746601504937,2016-12-13T14:21:05Z,5382.461568478918,2016-12-14T10:09:05Z
Cargo,JETTEN GBG STAD VA,323659,57.65103,11.79379,5382.461568478918,2016-12-14T10:09:05Z,5382.461568478918,2016-12-14T10:09:05Z
Cargo,JOMI,370338,57.92633,11.655,0,2016-12-15T11:25:05Z,1497.1840632461683,2016-12-15T11:27:06Z
Cargo,JOMI,370338,57.93277,11.67727,1497.1840632461683,2016-12-15T11:27:06Z,1497.1840632461683,2016-12-15T11:27:06Z
Cargo,JONNI RITSCHER,757658,57.60165,11.66195,NA,2016-12-19T03:51:05Z,1392.9314780029247,2016-12-19T03:53:05Z
Cargo,JONNI RITSCHER,757658,57.61271,11.67293,1392.9314780029247,2016-12-19T03:53:05Z,1392.9314780029247,2016-12-19T03:53:05Z
Cargo,JSP ROVER,362817,54.60287,18.88745,0,2016-12-17T13:35:01Z,1997.3316160777485,2016-12-17T13:37:02Z
Cargo,JSP ROVER,362817,54.58729,18.87202,1997.3316160777485,2016-12-17T13:37:02Z,1997.3316160777485,2016-12-17T13:37:02Z
Cargo,JUNO,373303,54.52653,18.80179,0,2016-12-17T13:59:01Z,1418.1415508519194,2016-12-17T14:01:01Z
Cargo,JUNO,373303,54.53614,18.81624,1418.1415508519194,2016-12-17T14:01:01Z,1418.1415508519194,2016-12-17T14:01:01Z
Cargo,KAIE,300784,59.92081,30.00438,249.4329370932485,2016-12-18T17:01:04Z,809.7767775571509,2016-12-18T17:03:03Z
Cargo,KAIE,300784,59.91813,30.01789,809.7767775571509,2016-12-18T17:03:03Z,809.7767775571509,2016-12-18T17:03:03Z
Cargo,KAPITAN MIRONOV,288897,59.91975,30.01034,342.14416708220324,2016-12-20T02:27:04Z,940.7845604473173,2016-12-20T02:29:03Z
Cargo,KAPITAN MIRONOV,288897,59.91663,30.02603,940.7845604473173,2016-12-20T02:29:03Z,940.7845604473173,2016-12-20T02:29:03Z
Cargo,KAPITAN YAKOVLEV,289583,59.9024,30.09604,613.4607201244033,2016-12-16T08:57:04Z,1215.2827316917992,2016-12-16T08:59:03Z
Cargo,KAPITAN YAKOVLEV,289583,59.90648,30.07582,1215.2827316917992,2016-12-16T08:59:03Z,1215.2827316917992,2016-12-16T08:59:03Z
Cargo,KAREN C,195991,54.53817,18.68033,742.1176924277246,2016-12-18T11:03:06Z,1411.381524546551,2016-12-18T11:05:02Z
Cargo,KAREN C,195991,54.53733,18.6585,1411.381524546551,2016-12-18T11:05:02Z,1411.381524546551,2016-12-18T11:05:02Z
Cargo,KAROLI,2764,54.5644,18.83774,0,2016-12-19T12:55:01Z,3094.7225921723348,2016-12-19T12:59:02Z
Cargo,KAROLI,2764,54.54369,18.80568,3094.7225921723348,2016-12-19T12:59:02Z,3094.7225921723348,2016-12-19T12:59:02Z
Cargo,KEGUMS,306484,59.91596,30.02845,315.0223069885384,2016-12-13T21:31:04Z,931.5620515730304,2016-12-13T21:33:03Z
Cargo,KEGUMS,306484,59.91918,30.01302,931.5620515730304,2016-12-13T21:33:03Z,931.5620515730304,2016-12-13T21:33:03Z
Cargo,KERLI,3338,54.73725,18.97902,0,2016-12-17T07:59:01Z,2682.7042312356625,2016-12-17T08:01:02Z
Cargo,KERLI,3338,54.76132,18.98187,2682.7042312356625,2016-12-17T08:01:02Z,2682.7042312356625,2016-12-17T08:01:02Z
Cargo,KNOSSOS,547677,59.89617,30.21417,340.41474765317196,2016-12-16T09:51:04Z,666.8184755654933,2016-12-16T09:53:03Z
Cargo,KNOSSOS,547677,59.89115,30.20763,666.8184755654933,2016-12-16T09:53:03Z,666.8184755654933,2016-12-16T09:53:03Z
Cargo,KONYA,2006,55.72832,21.06178,0,2016-12-15T16:17:06Z,1295.7223438970602,2016-12-15T16:19:07Z
Cargo,KONYA,2006,55.72777,21.08245,1295.7223438970602,2016-12-15T16:19:07Z,1295.7223438970602,2016-12-15T16:19:07Z
Cargo,KOZNITZA,461192,54.63397,19.93747,323.28444977566164,2016-12-20T09:11:03Z,3244.4409360514937,2016-12-20T09:31:03Z
Cargo,KOZNITZA,461192,54.6377,19.98747,3244.4409360514937,2016-12-20T09:31:03Z,3244.4409360514937,2016-12-20T09:31:03Z
Cargo,KYMOPOLIA,714454,54.4211,18.846,0,2016-12-16T12:55:01Z,3269.980262678741,2016-12-16T12:57:02Z
Cargo,KYMOPOLIA,714454,54.42725,18.89543,3269.980262678741,2016-12-16T12:57:02Z,3269.980262678741,2016-12-16T12:57:02Z
Cargo,LADY AMI,3574326,57.98264,12.12585,0,2016-12-19T12:27:08Z,1566.0317363621323,2016-12-19T12:33:05Z
Cargo,LADY AMI,3574326,57.99671,12.12702,1566.0317363621323,2016-12-19T12:33:05Z,1566.0317363621323,2016-12-19T12:33:05Z
Cargo,LANTAU ARROW,716099,54.5937,18.8818,0,2016-12-13T12:49:02Z,2668.991183270485,2016-12-13T12:51:02Z
Cargo,LANTAU ARROW,716099,54.57534,18.85512,2668.991183270485,2016-12-13T12:51:02Z,2668.991183270485,2016-12-13T12:51:02Z
Cargo,LARGONA,467978,55.65171,21.15729,127.98594371128144,2016-12-17T09:57:06Z,2063.977652045429,2016-12-17T10:07:06Z
Cargo,LARGONA,467978,55.6684,21.14289,2063.977652045429,2016-12-17T10:07:06Z,2063.977652045429,2016-12-17T10:07:06Z
Cargo,LAVAUX,332129,59.90585,30.07876,285.6435359562955,2016-12-14T22:27:04Z,916.4187709611988,2016-12-14T22:29:03Z
Cargo,LAVAUX,332129,59.90895,30.06353,916.4187709611988,2016-12-14T22:29:03Z,916.4187709611988,2016-12-14T22:29:03Z
Cargo,LAZURITE,347528,59.91562,30.03036,634.488069006858,2016-12-20T05:33:04Z,1299.6403136004058,2016-12-20T05:35:03Z
Cargo,LAZURITE,347528,59.91127,30.052,1299.6403136004058,2016-12-20T05:35:03Z,1299.6403136004058,2016-12-20T05:35:03Z
Cargo,LECKO,222824,57.61483,11.67417,1696.0731607140283,2016-12-20T10:11:05Z,5028.761428931433,2016-12-20T10:27:05Z
Cargo,LECKO,222824,57.65167,11.72317,5028.761428931433,2016-12-20T10:27:05Z,5028.761428931433,2016-12-20T10:27:05Z
Cargo,LILY-B,458566,54.76496,18.98556,0,2016-12-15T23:11:01Z,1887.8072129439856,2016-12-15T23:13:02Z
Cargo,LILY-B,458566,54.76741,18.95644,1887.8072129439856,2016-12-15T23:13:02Z,1887.8072129439856,2016-12-15T23:13:02Z
Cargo,LINDA,6500,55.8541,20.839,0,2016-12-15T12:57:06Z,2525.8307620767714,2016-12-15T12:59:07Z
Cargo,LINDA,6500,55.83518,20.86139,2525.8307620767714,2016-12-15T12:59:07Z,2525.8307620767714,2016-12-15T12:59:07Z
Cargo,LINGEDIJK,264274,54.7002,18.99814,421.6246421028927,2016-12-14T11:55:02Z,9099.396100243883,2016-12-14T12:47:02Z
Cargo,LINGEDIJK,264274,54.78203,18.99932,9099.396100243883,2016-12-14T12:47:02Z,9099.396100243883,2016-12-14T12:47:02Z
Cargo,LISA,360595,54.55636,18.82552,0,2016-12-15T13:09:01Z,1430.92627496168,2016-12-15T13:11:02Z
Cargo,LISA,360595,54.54704,18.81022,1430.92627496168,2016-12-15T13:11:02Z,1430.92627496168,2016-12-15T13:11:02Z
Cargo,LISA D,361457,54.7411,18.74127,649.376643636927,2016-12-16T02:59:07Z,1298.1837572638772,2016-12-16T03:01:01Z
Cargo,LISA D,361457,54.73518,18.7587,1298.1837572638772,2016-12-16T03:01:01Z,1298.1837572638772,2016-12-16T03:01:01Z
Cargo,LISTER,205767,59.92163,30.00039,611.6408182939903,2016-12-19T03:15:04Z,1137.8286069671801,2016-12-19T03:17:03Z
Cargo,LISTER,205767,59.91781,30.01933,1137.8286069671801,2016-12-19T03:17:03Z,1137.8286069671801,2016-12-19T03:17:03Z
Cargo,LIV KRISTIN,205637,54.6979,18.96096,0,2016-12-16T18:07:01Z,2683.9143063243473,2016-12-16T18:09:02Z
Cargo,LIV KRISTIN,205637,54.71239,18.92755,2683.9143063243473,2016-12-16T18:09:02Z,2683.9143063243473,2016-12-16T18:09:02Z
Cargo,LIVA GRETA,352321,54.67803,18.99798,413.44033073624746,2016-12-16T19:53:02Z,158459.3421284314,2016-12-17T05:11:06Z
Cargo,LIVA GRETA,352321,55.66075,20.80509,158459.3421284314,2016-12-17T05:11:06Z,158459.3421284314,2016-12-17T05:11:06Z
Cargo,LURO,222372,57.8895,12.03617,940.1259496609231,2016-12-15T05:55:08Z,1343.639803518706,2016-12-15T05:57:05Z
Cargo,LURO,222372,57.87833,12.0275,1343.639803518706,2016-12-15T05:57:05Z,1343.639803518706,2016-12-15T05:57:05Z
Cargo,LYRA,363818,55.66217,21.14783,399.5708958025264,2016-12-14T18:27:07Z,1355.2865195707434,2016-12-14T18:33:07Z
Cargo,LYRA,363818,55.67367,21.14067,1355.2865195707434,2016-12-14T18:33:07Z,1355.2865195707434,2016-12-14T18:33:07Z
Cargo,MAERSK NIAMEY,686278,59.91205,30.04847,0,2016-12-20T09:55:04Z,2709.2750928422283,2016-12-20T10:03:03Z
Cargo,MAERSK NIAMEY,686278,59.92105,30.0033,2709.2750928422283,2016-12-20T10:03:03Z,2709.2750928422283,2016-12-20T10:03:03Z
Cargo,MAERSKMCKINNEYMOLLER,155711,54.45481,18.99613,1119.974952526353,2016-12-19T09:41:02Z,36600.37016242105,2016-12-19T10:57:02Z
Cargo,MAERSKMCKINNEYMOLLER,155711,54.78387,18.98247,36600.37016242105,2016-12-19T10:57:02Z,36600.37016242105,2016-12-19T10:57:02Z
Cargo,MAGNOLIA SEAWAYS,157110,57.61156,11.66525,0,2016-12-16T06:03:05Z,2410.592528923633,2016-12-16T06:05:05Z
Cargo,MAGNOLIA SEAWAYS,157110,57.62883,11.68972,2410.592528923633,2016-12-16T06:05:05Z,2410.592528923633,2016-12-16T06:05:05Z
Cargo,MARIS,362969,54.73133,18.7965,1436.2290402718309,2016-12-14T02:51:02Z,27978.52803199678,2016-12-14T21:41:07Z
Cargo,MARIS,362969,54.54233,18.5095,27978.52803199678,2016-12-14T21:41:07Z,27978.52803199678,2016-12-14T21:41:07Z
Cargo,MAUREEN S,146036,55.71506,21.11333,414.06305970921045,2016-12-19T04:53:06Z,1454.5777546486056,2016-12-19T04:59:06Z
Cargo,MAUREEN S,146036,55.72418,21.09668,1454.5777546486056,2016-12-19T04:59:06Z,1454.5777546486056,2016-12-19T04:59:06Z
Cargo,MELUSINE,115307,57.67873,11.7854,0,2016-12-14T19:55:05Z,3230.3071465503945,2016-12-14T19:57:05Z
Cargo,MELUSINE,115307,57.68228,11.83933,3230.3071465503945,2016-12-14T19:57:05Z,3230.3071465503945,2016-12-14T19:57:05Z
Cargo,MERI,6223,54.4373,18.65869,0,2016-12-16T12:55:07Z,3276.542117974436,2016-12-16T12:57:02Z
Cargo,MERI,6223,54.45842,18.69403,3276.542117974436,2016-12-16T12:57:02Z,3276.542117974436,2016-12-16T12:57:02Z
Cargo,MERITA,125721,54.67559,19.80014,812.0536007057362,2016-12-19T22:13:02Z,47211.2487335882,2016-12-20T00:39:03Z
Cargo,MERITA,125721,55.10017,19.80171,47211.2487335882,2016-12-20T00:39:03Z,47211.2487335882,2016-12-20T00:39:03Z
Cargo,MIKHAIL DUDIN,376495,59.91255,30.04623,0,2016-12-15T03:59:04Z,1205.0789329961335,2016-12-15T04:01:03Z
Cargo,MIKHAIL DUDIN,376495,59.90845,30.06624,1205.0789329961335,2016-12-15T04:01:03Z,1205.0789329961335,2016-12-15T04:01:03Z
Cargo,MIKHAIL LOMONOSOV,347839,59.89796,30.11797,583.2346261109498,2016-12-18T21:41:04Z,1243.3928646114866,2016-12-18T21:43:03Z
Cargo,MIKHAIL LOMONOSOV,347839,59.90219,30.09733,1243.3928646114866,2016-12-18T21:43:03Z,1243.3928646114866,2016-12-18T21:43:03Z
Cargo,MILAN EXPRESS,371109,59.92189,30.00013,0,2016-12-13T18:35:05Z,869784.0401403895,2016-12-17T00:51:02Z
Cargo,MILAN EXPRESS,371109,54.799,18.99783,869784.0401403895,2016-12-17T00:51:02Z,869784.0401403895,2016-12-17T00:51:02Z
Cargo,MINERVA,370329,57.69083,11.90092,759.5744383940897,2016-12-18T23:31:07Z,1347.2619235148834,2016-12-18T23:33:06Z
Cargo,MINERVA,370329,57.69861,11.9183,1347.2619235148834,2016-12-18T23:33:06Z,1347.2619235148834,2016-12-18T23:33:06Z
Cargo,MIRVA VG,4631227,54.65864,19.83358,35.65415643775258,2016-12-19T15:23:03Z,2213.9536232212877,2016-12-19T15:31:03Z
Cargo,MIRVA VG,4631227,54.64986,19.86447,2213.9536232212877,2016-12-19T15:31:03Z,2213.9536232212877,2016-12-19T15:31:03Z
Cargo,MISANA,181427,59.91617,30.02817,424.3320807585869,2016-12-19T01:45:04Z,1215.6588005049882,2016-12-19T01:47:03Z
Cargo,MISANA,181427,59.912,30.04833,1215.6588005049882,2016-12-19T01:47:03Z,1215.6588005049882,2016-12-19T01:47:03Z
Cargo,MISTRAL,359376,55.68801,21.13291,647.7644236003699,2016-12-16T20:15:06Z,1903.3896584323488,2016-12-16T20:21:06Z
Cargo,MISTRAL,359376,55.70358,21.12029,1903.3896584323488,2016-12-16T20:21:06Z,1903.3896584323488,2016-12-16T20:21:06Z
Cargo,MITO STRAIT,362070,57.67717,11.75267,0,2016-12-15T20:19:05Z,2052.481480693509,2016-12-15T20:21:05Z
Cargo,MITO STRAIT,362070,57.67783,11.71817,2052.481480693509,2016-12-15T20:21:05Z,2052.481480693509,2016-12-15T20:21:05Z
Cargo,MODULUS-2,347509,59.91857,30.01613,0,2016-12-14T10:09:04Z,536.2331182325144,2016-12-14T10:11:04Z
Cargo,MODULUS-2,347509,59.92039,30.00722,536.2331182325144,2016-12-14T10:11:04Z,536.2331182325144,2016-12-14T10:11:04Z
Cargo,MOL QUINTET,726043,54.46572,18.99627,547.445950229207,2016-12-14T17:49:01Z,573510.8419177947,2016-12-15T18:45:09Z
Cargo,MOL QUINTET,726043,57.60555,11.66162,573510.8419177947,2016-12-15T18:45:09Z,573510.8419177947,2016-12-15T18:45:09Z
Cargo,MSC AMY,204546,57.68117,11.8255,709.6792179032,2016-12-17T00:45:08Z,1426.1270970987928,2016-12-17T00:47:05Z
Cargo,MSC AMY,204546,57.67567,11.80383,1426.1270970987928,2016-12-17T00:47:05Z,1426.1270970987928,2016-12-17T00:47:05Z
Cargo,MSC MANDRAKI,212317,55.72787,20.85677,666.8991005026099,2016-12-13T11:51:06Z,1708.3436203633007,2016-12-13T11:53:06Z
Cargo,MSC MANDRAKI,212317,55.72766,20.88405,1708.3436203633007,2016-12-13T11:53:06Z,1708.3436203633007,2016-12-13T11:53:06Z
Cargo,MSC MATILDE,412843,54.657470000000004,18.95536,0,2016-12-19T01:59:02Z,168694.0616980571,2016-12-19T02:55:05Z
Cargo,MSC MATILDE,412843,55.74283,20.81294,168694.0616980571,2016-12-19T02:55:05Z,168694.0616980571,2016-12-19T02:55:05Z
Cargo,MSC OSCAR,1914339,57.67958,11.79725,0,2016-12-14T15:41:05Z,1444.6499032146926,2016-12-14T15:43:05Z
Cargo,MSC OSCAR,1914339,57.67819,11.77309,1444.6499032146926,2016-12-14T15:43:05Z,1444.6499032146926,2016-12-14T15:43:05Z
Cargo,MSC SABRINA,418044,59.88975,30.15704,1403.2389832484114,2016-12-16T22:59:04Z,1830.275764257109,2016-12-16T23:01:03Z
Cargo,MSC SABRINA,418044,59.89602,30.1267,1830.275764257109,2016-12-16T23:01:03Z,1830.275764257109,2016-12-16T23:01:03Z
Cargo,MSC SANTHYA,416514,59.91933,30.01209,NA,2016-12-20T04:13:03Z,783.6361906276553,2016-12-20T04:15:03Z
Cargo,MSC SANTHYA,416514,59.91667,30.02511,783.6361906276553,2016-12-20T04:15:03Z,783.6361906276553,2016-12-20T04:15:03Z
Cargo,MULTIMAR,205520,54.78885,18.91414,538.9676853164478,2016-12-20T11:01:02Z,1464.3025795085252,2016-12-20T11:07:03Z
Cargo,MULTIMAR,205520,54.78098,18.93245,1464.3025795085252,2016-12-20T11:07:03Z,1464.3025795085252,2016-12-20T11:07:03Z
Cargo,NACC TORONTO,291621,54.63306,19.89324,0,2016-12-13T23:21:03Z,2548.0650893615257,2016-12-13T23:23:03Z
Cargo,NACC TORONTO,291621,54.64939,19.86546,2548.0650893615257,2016-12-13T23:23:03Z,2548.0650893615257,2016-12-13T23:23:03Z
Cargo,NAVEN,182370,57.95989,11.71741,0,2016-12-14T19:55:05Z,2879.2925290841845,2016-12-14T19:57:05Z
Cargo,NAVEN,182370,57.93928,11.68787,2879.2925290841845,2016-12-14T19:57:05Z,2879.2925290841845,2016-12-14T19:57:05Z
Cargo,NAVI BALTIC,145926,55.72889,21.0307,488.0027701754058,2016-12-15T06:21:07Z,1523.6038625357585,2016-12-15T06:23:06Z
Cargo,NAVI BALTIC,145926,55.72868,21.05503,1523.6038625357585,2016-12-15T06:23:06Z,1523.6038625357585,2016-12-15T06:23:06Z
Cargo,NBP CARRIER,365628,54.63794,19.88478,0,2016-12-15T23:41:03Z,2414.8502948922683,2016-12-15T23:43:03Z
Cargo,NBP CARRIER,365628,54.65233,19.85667,2414.8502948922683,2016-12-15T23:43:03Z,2414.8502948922683,2016-12-15T23:43:03Z
Cargo,NEWYORKER,420754,57.60207,11.62982,0,2016-12-19T02:05:05Z,1835.243305721251,2016-12-19T02:07:05Z
Cargo,NEWYORKER,420754,57.60668,11.6594,1835.243305721251,2016-12-19T02:07:05Z,1835.243305721251,2016-12-19T02:07:05Z
Cargo,NIKOLAS,420706,59.92066,30.00638,0,2016-12-18T02:17:04Z,1204.4881212463158,2016-12-18T02:19:03Z
Cargo,NIKOLAS,420706,59.91663,30.02644,1204.4881212463158,2016-12-18T02:19:03Z,1204.4881212463158,2016-12-18T02:19:03Z
Cargo,NINA-1,469525,54.53569,18.56993,491.6649731847664,2016-12-20T09:11:07Z,2302.275222412225,2016-12-20T09:31:07Z
Cargo,NINA-1,469525,54.53049,18.53539,2302.275222412225,2016-12-20T09:31:07Z,2302.275222412225,2016-12-20T09:31:07Z
Cargo,NJORD,246960,59.90236,30.09618,690.6827942257057,2016-12-19T09:49:06Z,1472.4616587637925,2016-12-19T09:51:03Z
Cargo,NJORD,246960,59.90729,30.07167,1472.4616587637925,2016-12-19T09:51:03Z,1472.4616587637925,2016-12-19T09:51:03Z
Cargo,NORDEROOG,204901,59.88723,30.17037,0,2016-12-20T09:11:04Z,3908.504336020687,2016-12-20T09:31:04Z
Cargo,NORDEROOG,204901,59.90061,30.10557,3908.504336020687,2016-12-20T09:31:04Z,3908.504336020687,2016-12-20T09:31:04Z
Cargo,NORDIC ACE,370244,57.67709,11.73576,564.2652445226581,2016-12-19T19:05:05Z,1677.8525393598238,2016-12-19T19:07:05Z
Cargo,NORDIC ACE,370244,57.67521,11.70776,1677.8525393598238,2016-12-19T19:07:05Z,1677.8525393598238,2016-12-19T19:07:05Z
Cargo,NORDIC HAMBURG,123774,59.9152,30.03243,337.4224739386775,2016-12-17T14:05:04Z,1101.8014496717774,2016-12-17T14:07:03Z
Cargo,NORDIC HAMBURG,123774,59.91153,30.05079,1101.8014496717774,2016-12-17T14:07:03Z,1101.8014496717774,2016-12-17T14:07:03Z
Cargo,NORDIC PHILIP,144106,54.63322,19.89455,0,2016-12-19T07:47:02Z,1463.2123720175184,2016-12-19T07:49:03Z
Cargo,NORDIC PHILIP,144106,54.63261,19.91726,1463.2123720175184,2016-12-19T07:49:03Z,1463.2123720175184,2016-12-19T07:49:03Z
Cargo,NOVAYA ZEMLYA,347236,59.90448,30.08493,757.3886978560498,2016-12-15T10:33:04Z,1431.8291121240966,2016-12-15T10:35:04Z
Cargo,NOVAYA ZEMLYA,347236,59.90933,30.06114,1431.8291121240966,2016-12-15T10:35:04Z,1431.8291121240966,2016-12-15T10:35:04Z
Cargo,NURI SONAY,335231,54.79419,18.91866,0,2016-12-17T04:09:01Z,1275.2635707230015,2016-12-17T04:11:01Z
Cargo,NURI SONAY,335231,54.78623,18.93298,1275.2635707230015,2016-12-17T04:11:01Z,1275.2635707230015,2016-12-17T04:11:01Z
Cargo,OCEAN RAINBOW,459517,55.72824,21.05654,800.0484991489324,2016-12-16T15:43:06Z,2167.4446570500018,2016-12-16T15:51:06Z
Cargo,OCEAN RAINBOW,459517,55.7255,21.09081,2167.4446570500018,2016-12-16T15:51:06Z,2167.4446570500018,2016-12-16T15:51:06Z
Cargo,OCEAN VOYAGER,465931,54.74373,18.99928,772.9009743902334,2016-12-19T10:13:02Z,2768.9313718169333,2016-12-19T10:21:02Z
Cargo,OCEAN VOYAGER,465931,54.76856,18.99601,2768.9313718169333,2016-12-19T10:21:02Z,2768.9313718169333,2016-12-19T10:21:02Z
Cargo,OLGA,756252,54.64677,20.06415,0,2016-12-17T01:07:03Z,9078.631399294874,2016-12-17T01:09:02Z
Cargo,OLGA,756252,54.63303,19.92508,9078.631399294874,2016-12-17T01:09:02Z,9078.631399294874,2016-12-17T01:09:02Z
Cargo,OMSKIY-132,346106,59.91209,30.04754,552.2623485881106,2016-12-18T20:01:04Z,1122.8283072471493,2016-12-18T20:03:03Z
Cargo,OMSKIY-132,346106,59.91593,30.02891,1122.8283072471493,2016-12-18T20:03:03Z,1122.8283072471493,2016-12-18T20:03:03Z
Cargo,OMSKIY-134,346167,59.9176,30.02091,165.34524401264161,2016-12-13T23:17:04Z,657.8517395216168,2016-12-13T23:19:04Z
Cargo,OMSKIY-134,346167,59.91987,30.01001,657.8517395216168,2016-12-13T23:19:04Z,657.8517395216168,2016-12-13T23:19:04Z
Cargo,OMSKIY-140,346053,54.66514,18.95891,0,2016-12-15T21:23:01Z,1189.480885495813,2016-12-15T21:25:01Z
Cargo,OMSKIY-140,346053,54.67465,18.96738,1189.480885495813,2016-12-15T21:25:01Z,1189.480885495813,2016-12-15T21:25:01Z
Cargo,OMSKIY-141,345797,54.65581,19.84741,0,2016-12-14T23:31:02Z,4873.691750966076,2016-12-14T23:33:03Z
Cargo,OMSKIY-141,345797,54.63283,19.91191,4873.691750966076,2016-12-14T23:33:03Z,4873.691750966076,2016-12-14T23:33:03Z
Cargo,OOCL RAUMA,270219,59.91561,30.03031,735.9970793697,2016-12-15T14:51:04Z,1503.809999918438,2016-12-15T14:53:04Z
Cargo,OOCL RAUMA,270219,59.91059,30.05536,1503.809999918438,2016-12-15T14:53:04Z,1503.809999918438,2016-12-15T14:53:04Z
Cargo,OSTEREMS,359922,59.9116,30.05038,706.379440382477,2016-12-18T03:33:04Z,1061.0266284568818,2016-12-18T03:35:03Z
Cargo,OSTEREMS,359922,59.90803,30.06803,1061.0266284568818,2016-12-18T03:35:03Z,1061.0266284568818,2016-12-18T03:35:03Z
Cargo,PACIFIC CALM,411868,55.72888,21.04194,0,2016-12-15T12:57:06Z,943.9871695442565,2016-12-15T12:59:07Z
Cargo,PACIFIC CALM,411868,55.72864,21.05701,943.9871695442565,2016-12-15T12:59:07Z,943.9871695442565,2016-12-15T12:59:07Z
Cargo,PAPUA,758718,59.88899,30.16134,442.4420781656323,2016-12-14T18:41:04Z,877.0773989567837,2016-12-14T18:43:03Z
Cargo,PAPUA,758718,59.89198,30.14679,877.0773989567837,2016-12-14T18:43:03Z,877.0773989567837,2016-12-14T18:43:03Z
Cargo,PAULINE RUSS,360043,59.913,30.0425,391.3458349881333,2016-12-13T22:15:04Z,1289.9355974350224,2016-12-13T22:17:03Z
Cargo,PAULINE RUSS,360043,59.9175,30.02117,1289.9355974350224,2016-12-13T22:17:03Z,1289.9355974350224,2016-12-13T22:17:03Z
Cargo,PETER PAN,4252519,54.76785,18.99642,617.1633242501183,2016-12-19T17:57:01Z,5281.269729314003,2016-12-19T18:07:02Z
Cargo,PETER PAN,4252519,54.72048,18.99044,5281.269729314003,2016-12-19T18:07:02Z,5281.269729314003,2016-12-19T18:07:02Z
Cargo,PETUNIA SEAWAYS,158628,57.652589999999996,11.72198,0,2016-12-17T16:53:05Z,1955.247490701657,2016-12-17T16:55:05Z
Cargo,PETUNIA SEAWAYS,158628,57.64103,11.69722,1955.247490701657,2016-12-17T16:55:05Z,1955.247490701657,2016-12-17T16:55:05Z
Cargo,PHANTOM,204427,59.92157,30.00041,0,2016-12-16T10:05:04Z,870675.7348842737,2016-12-18T14:37:01Z
Cargo,PHANTOM,204427,54.78657,18.99969,870675.7348842737,2016-12-18T14:37:01Z,870675.7348842737,2016-12-18T14:37:01Z
Cargo,PHOENIX II,132427,54.45469,18.99999,876.2083292367483,2016-12-19T19:03:01Z,57180.8442618603,2016-12-20T00:41:02Z
Cargo,PHOENIX II,132427,54.67082,19.80477,57180.8442618603,2016-12-20T00:41:02Z,57180.8442618603,2016-12-20T00:41:02Z
Cargo,PINTA,204565,57.8814,12.02976,453.8658180563772,2016-12-17T02:49:07Z,1201.6712911784382,2016-12-17T02:51:05Z
Cargo,PINTA,204565,57.87129,12.02258,1201.6712911784382,2016-12-17T02:51:05Z,1201.6712911784382,2016-12-17T02:51:05Z
Cargo,PITZTAL,266600,59.902,30.09755,523.7539008140932,2016-12-15T10:07:04Z,1111.0808105521528,2016-12-15T10:09:03Z
Cargo,PITZTAL,266600,59.90575,30.07908,1111.0808105521528,2016-12-15T10:09:03Z,1111.0808105521528,2016-12-15T10:09:03Z
Cargo,PL-2,350158,59.91559,30.26179,316.4304156926735,2016-12-20T07:01:05Z,316.4304156926735,2016-12-20T07:03:03Z
Cargo,PL-2,350158,59.91843,30.26143,316.4304156926735,2016-12-20T07:03:03Z,316.4304156926735,2016-12-20T07:03:03Z
Cargo,PLYCA,263477,59.91821,30.018,0,2016-12-14T21:51:05Z,857.1143061586525,2016-12-14T21:53:03Z
Cargo,PLYCA,263477,59.92117,30.0038,857.1143061586525,2016-12-14T21:53:03Z,857.1143061586525,2016-12-14T21:53:03Z
Cargo,POLA MUROM,2929,59.91764,30.021,300.77670529603876,2016-12-13T22:41:04Z,851.4919185095536,2016-12-13T22:43:03Z
Cargo,POLA MUROM,2929,59.92054,30.00686,851.4919185095536,2016-12-13T22:43:03Z,851.4919185095536,2016-12-13T22:43:03Z
Cargo,POLA UGLICH,2934,59.91687,30.02371,379.51716213654,2016-12-19T02:05:04Z,1098.6477849824985,2016-12-19T02:07:04Z
Cargo,POLA UGLICH,2934,59.9132,30.04201,1098.6477849824985,2016-12-19T02:07:04Z,1098.6477849824985,2016-12-19T02:07:04Z
Cargo,PRIMA FORTUNA,6220,55.71674,21.11054,118.30817853778262,2016-12-18T00:43:06Z,1846.2191831731589,2016-12-18T00:51:06Z
Cargo,PRIMA FORTUNA,6220,55.72672,21.08698,1846.2191831731589,2016-12-18T00:51:06Z,1846.2191831731589,2016-12-18T00:51:06Z
Cargo,PRIMULA SEAWAYS,158740,57.63254,11.69205,0,2016-12-15T18:15:07Z,2412.2450840776337,2016-12-15T18:17:05Z
Cargo,PRIMULA SEAWAYS,158740,57.65028,11.71538,2412.2450840776337,2016-12-15T18:17:05Z,2412.2450840776337,2016-12-15T18:17:05Z
Cargo,PRINCE OF WAVES,757619,59.912,30.04717,713.076792633116,2016-12-19T19:21:04Z,1431.7481328946446,2016-12-19T19:23:03Z
Cargo,PRINCE OF WAVES,757619,59.917,30.0235,1431.7481328946446,2016-12-19T19:23:03Z,1431.7481328946446,2016-12-19T19:23:03Z
Cargo,PRINCESSE OUI,3412946,59.88755,30.19603,453.91730101851135,2016-12-18T20:15:04Z,871.2086540489385,2016-12-18T20:17:03Z
Cargo,PRINCESSE OUI,3412946,59.88584,30.18079,871.2086540489385,2016-12-18T20:17:03Z,871.2086540489385,2016-12-18T20:17:03Z
Cargo,PRISCILLA,258225,57.60335,11.61722,438.1567387370306,2016-12-19T19:13:05Z,587.9590463848382,2016-12-19T19:15:05Z
Cargo,PRISCILLA,258225,57.60552,11.60822,587.9590463848382,2016-12-19T19:15:05Z,587.9590463848382,2016-12-19T19:15:05Z
Cargo,RAMONA,5396,57.65665,11.74505,0,2016-12-17T12:05:05Z,1058.2377034380854,2016-12-17T12:07:06Z
Cargo,RAMONA,5396,57.6536,11.7282,1058.2377034380854,2016-12-17T12:07:06Z,1058.2377034380854,2016-12-17T12:07:06Z
Cargo,REINBEK,3162,59.90187,30.09799,275.43331481102837,2016-12-13T20:15:05Z,875.661493038845,2016-12-13T20:17:04Z
Cargo,REINBEK,3162,59.90487,30.08347,875.661493038845,2016-12-13T20:17:04Z,875.661493038845,2016-12-13T20:17:04Z
Cargo,RIG,150545,55.72821,21.06735,0,2016-12-16T12:55:06Z,2897.4344604631474,2016-12-16T13:03:06Z
Cargo,RIG,150545,55.71651,21.10869,2897.4344604631474,2016-12-16T13:03:06Z,2897.4344604631474,2016-12-16T13:03:06Z
Cargo,RIX STAR,352437,54.61718,18.89862,0,2016-12-14T19:55:01Z,2714.456783478018,2016-12-14T19:57:02Z
Cargo,RIX STAR,352437,54.59549,18.87928,2714.456783478018,2016-12-14T19:57:02Z,2714.456783478018,2016-12-14T19:57:02Z
Cargo,RMS RAHM,364258,54.44588,18.646,0,2016-12-14T01:57:06Z,5078.2441612280645,2016-12-19T11:15:07Z
Cargo,RMS RAHM,364258,54.40356,18.67551,5078.2441612280645,2016-12-19T11:15:07Z,5078.2441612280645,2016-12-19T11:15:07Z
Cargo,ROBIN WIND,461454,54.7093,18.99832,768.5198946439111,2016-12-17T07:17:02Z,7436.273936247705,2016-12-17T07:43:02Z
Cargo,ROBIN WIND,461454,54.776,18.98992,7436.273936247705,2016-12-17T07:43:02Z,7436.273936247705,2016-12-17T07:43:02Z
Cargo,ROJAREK NAREE,734035,54.55322,18.83907,0,2016-12-16T16:35:01Z,1695.0812250254155,2016-12-16T16:37:01Z
Cargo,ROJAREK NAREE,734035,54.56457,18.85662,1695.0812250254155,2016-12-16T16:37:01Z,1695.0812250254155,2016-12-16T16:37:01Z
Cargo,ROZTOCZE,374739,59.91028,30.05664,611.7794771130428,2016-12-16T08:57:04Z,1265.2179310138297,2016-12-16T08:59:03Z
Cargo,ROZTOCZE,374739,59.91451,30.03557,1265.2179310138297,2016-12-16T08:59:03Z,1265.2179310138297,2016-12-16T08:59:03Z
Cargo,RUBYN,469377,55.71498,21.11143,436.5285776120267,2016-12-15T04:17:06Z,1760.5831011074479,2016-12-15T04:25:07Z
Cargo,RUBYN,469377,55.72585,21.09099,1760.5831011074479,2016-12-15T04:25:07Z,1760.5831011074479,2016-12-15T04:25:07Z
Cargo,RUSICH-10,348850,54.69933,20.45379,NA,2016-12-13T16:27:03Z,50.730177995006166,2016-12-13T16:31:02Z
Cargo,RUSICH-10,348850,54.69888,20.45392,50.730177995006166,2016-12-13T16:31:02Z,50.730177995006166,2016-12-13T16:31:02Z
Cargo,RUTH,145641,59.91788,30.0202,0,2016-12-20T01:29:04Z,1620.1755299970334,2016-12-20T01:33:03Z
Cargo,RUTH,145641,59.91236,30.0471,1620.1755299970334,2016-12-20T01:33:03Z,1620.1755299970334,2016-12-20T01:33:03Z
Cargo,SAFFIER,257862,55.73774,20.87151,783.249101946185,2016-12-15T06:21:07Z,1152.6252960202582,2016-12-15T06:23:06Z
Cargo,SAFFIER,257862,55.73665,20.8532,1152.6252960202582,2016-12-15T06:23:06Z,1152.6252960202582,2016-12-15T06:23:06Z
Cargo,SAMUR-3,349963,54.6333,19.89325,0,2016-12-18T15:15:03Z,45502.01252882849,2016-12-19T13:11:03Z
Cargo,SAMUR-3,349963,54.9636,20.31231,45502.01252882849,2016-12-19T13:11:03Z,45502.01252882849,2016-12-19T13:11:03Z
Cargo,SAN REMO,468812,55.70337,21.11962,979.2470006896905,2016-12-18T18:03:05Z,3547.7546591146447,2016-12-18T18:19:06Z
Cargo,SAN REMO,468812,55.7276,21.08277,3547.7546591146447,2016-12-18T18:19:06Z,3547.7546591146447,2016-12-18T18:19:06Z
Cargo,SANDETTIE,222305,54.78172,18.92054,0,2016-12-14T10:35:02Z,816.0540981252391,2016-12-14T10:37:02Z
Cargo,SANDETTIE,222305,54.78661,18.91105,816.0540981252391,2016-12-14T10:37:02Z,816.0540981252391,2016-12-14T10:37:02Z
Cargo,SANTA URSULA,465205,54.72224,18.99694,509.51771903032017,2016-12-18T05:55:02Z,4542.504358863521,2016-12-18T06:05:02Z
Cargo,SANTA URSULA,465205,54.76309,18.99629,4542.504358863521,2016-12-18T06:05:02Z,4542.504358863521,2016-12-18T06:05:02Z
Cargo,SAXUM,204431,55.71747,21.10957,405.83771572180797,2016-12-19T21:09:06Z,2326.6874000155713,2016-12-19T21:19:06Z
Cargo,SAXUM,204431,55.72813,21.0776,2326.6874000155713,2016-12-19T21:19:06Z,2326.6874000155713,2016-12-19T21:19:06Z
Cargo,SCA TUNADAL,366621,59.90543,30.08021,321.97491666538656,2016-12-19T18:03:04Z,1067.8231560467973,2016-12-19T18:05:03Z
Cargo,SCA TUNADAL,366621,59.909,30.06243,1067.8231560467973,2016-12-19T18:05:03Z,1067.8231560467973,2016-12-19T18:05:03Z
Cargo,SCHIEBORG,262525,57.61017,11.63217,0,2016-12-16T04:29:05Z,2181.0257185821692,2016-12-16T04:31:06Z
Cargo,SCHIEBORG,262525,57.6165,11.66683,2181.0257185821692,2016-12-16T04:31:06Z,2181.0257185821692,2016-12-16T04:31:06Z
Cargo,SCHUYLER TRADER,689205,54.77647,18.9374,0,2016-12-16T04:03:02Z,1493.8116996173553,2016-12-16T04:05:02Z
Cargo,SCHUYLER TRADER,689205,54.78593,18.92086,1493.8116996173553,2016-12-16T04:05:02Z,1493.8116996173553,2016-12-16T04:05:02Z
Cargo,SEAGARD,6046,59.91272,30.04566,648.5444842941034,2016-12-20T01:55:04Z,1255.3868841066576,2016-12-20T01:57:03Z
Cargo,SEAGARD,6046,59.90843,30.06649,1255.3868841066576,2016-12-20T01:57:03Z,1255.3868841066576,2016-12-20T01:57:03Z
Cargo,SEASTAR ENDURANCE,406999,54.61761,18.89918,0,2016-12-15T15:29:01Z,2225.3753649787795,2016-12-15T15:31:01Z
Cargo,SEASTAR ENDURANCE,406999,54.59955,18.88429,2225.3753649787795,2016-12-15T15:31:01Z,2225.3753649787795,2016-12-15T15:31:01Z
Cargo,SELENE PRAHM,130867,54.37166,18.664,527.1998957742262,2016-12-15T03:13:01Z,1278.4189159099164,2016-12-15T03:19:02Z
Cargo,SELENE PRAHM,130867,54.38306,18.66144,1278.4189159099164,2016-12-15T03:19:02Z,1278.4189159099164,2016-12-15T03:19:02Z
Cargo,SERDOLIK,347186,59.89773,30.11893,267.0709198280128,2016-12-16T08:57:04Z,821.0732778335179,2016-12-16T08:59:03Z
Cargo,SERDOLIK,347186,59.90051,30.10529,821.0732778335179,2016-12-16T08:59:03Z,821.0732778335179,2016-12-16T08:59:03Z
Cargo,SEROJA EMPAT,418949,57.60493,11.65567,856.6836484154871,2016-12-20T03:39:05Z,3326.307161501363,2016-12-20T03:55:04Z
Cargo,SEROJA EMPAT,418949,57.60117,11.60028,3326.307161501363,2016-12-20T03:55:04Z,3326.307161501363,2016-12-20T03:55:04Z
Cargo,SEVERNAYA ZEMLYA,347415,59.92015,30.00817,474.8770815749711,2016-12-19T02:55:03Z,841.7578018519093,2016-12-19T02:57:04Z
Cargo,SEVERNAYA ZEMLYA,347415,59.91731,30.02217,841.7578018519093,2016-12-19T02:57:04Z,841.7578018519093,2016-12-19T02:57:04Z
Cargo,SILVER FJORD,421615,55.72566,20.80205,807.2086166304546,2016-12-15T17:43:06Z,75001.05934465418,2016-12-15T21:25:02Z
Cargo,SILVER FJORD,421615,55.15951,20.15566,75001.05934465418,2016-12-15T21:25:02Z,75001.05934465418,2016-12-15T21:25:02Z
Cargo,SILVER PEARL,182341,59.91338,30.04178,755.9114618905978,2016-12-15T15:29:04Z,1895.435208378337,2016-12-15T15:31:04Z
Cargo,SILVER PEARL,182341,59.90694,30.07326,1895.435208378337,2016-12-15T15:31:04Z,1895.435208378337,2016-12-15T15:31:04Z
Cargo,SKAGENBANK,259232,57.61919,11.68127,0,2016-12-19T07:47:05Z,1462.9716688792673,2016-12-19T07:49:06Z
Cargo,SKAGENBANK,259232,57.63065,11.69334,1462.9716688792673,2016-12-19T07:49:06Z,1462.9716688792673,2016-12-19T07:49:06Z
Cargo,SLINGEBORG,262498,57.62883,11.67933,0,2016-12-18T22:33:04Z,2084.944728602217,2016-12-18T22:35:05Z
Cargo,SLINGEBORG,262498,57.61417,11.6575,2084.944728602217,2016-12-18T22:35:05Z,2084.944728602217,2016-12-18T22:35:05Z
Cargo,SOLONG,122649,59.91267,30.04487,0,2016-12-14T01:45:04Z,781.0683929083626,2016-12-14T01:47:04Z
Cargo,SOLONG,122649,59.91005,30.05787,781.0683929083626,2016-12-14T01:47:04Z,781.0683929083626,2016-12-14T01:47:04Z
Cargo,SOMERSET,260333,57.67833,11.72617,0,2016-12-14T01:15:05Z,2211.1682904138856,2016-12-14T01:17:06Z
Cargo,SOMERSET,260333,57.669,11.69333,2211.1682904138856,2016-12-14T01:17:06Z,2211.1682904138856,2016-12-14T01:17:06Z
Cargo,SORMOVSKIY-3064,350858,54.68362,20.32903,0,2016-12-16T21:49:04Z,6356.914822075676,2016-12-16T21:51:03Z
Cargo,SORMOVSKIY-3064,350858,54.6857,20.2302,6356.914822075676,2016-12-16T21:51:03Z,6356.914822075676,2016-12-16T21:51:03Z
Cargo,SORMOVSKIY-3055,345789,54.67454,18.99002,283.8970107305024,2016-12-14T01:07:01Z,52755.460034823125,2016-12-14T10:11:03Z
Cargo,SORMOVSKIY-3055,345789,54.65474,19.80963,52755.460034823125,2016-12-14T10:11:03Z,52755.460034823125,2016-12-14T10:11:03Z
Cargo,SORMOVSKIY-3056,346077,59.91097,30.05295,348.53016035353954,2016-12-15T08:29:04Z,1111.7676799253645,2016-12-15T08:31:03Z
Cargo,SORMOVSKIY-3056,346077,59.9072,30.07142,1111.7676799253645,2016-12-15T08:31:03Z,1111.7676799253645,2016-12-15T08:31:03Z
Cargo,SORMOVSKIY-3058,346084,54.6664,20.13557,0,2016-12-15T12:27:07Z,15452.73424543024,2016-12-15T12:33:03Z
Cargo,SORMOVSKIY-3058,346084,54.6326,19.90259,15452.73424543024,2016-12-15T12:33:03Z,15452.73424543024,2016-12-15T12:33:03Z
Cargo,SORMOVSKIY-3068,349018,54.65437,20.11265,4896.404612866684,2016-12-14T02:47:02Z,22867.254995587966,2016-12-15T17:43:03Z
Cargo,SORMOVSKIY-3068,349018,54.70193,20.4587,22867.254995587966,2016-12-15T17:43:03Z,22867.254995587966,2016-12-15T17:43:03Z
Cargo,SORMOVSKIY-53,346635,59.9087,30.06449,0,2016-12-19T16:25:04Z,1762.734266660408,2016-12-19T16:31:03Z
Cargo,SORMOVSKIY-53,346635,59.90277,30.09381,1762.734266660408,2016-12-19T16:31:03Z,1762.734266660408,2016-12-19T16:31:03Z
Cargo,SPANACO FIDELITY,146069,55.71562,21.11,0,2016-12-19T23:19:14Z,1031.0076638437517,2016-12-19T23:23:13Z
Cargo,SPANACO FIDELITY,146069,55.722410000000004,21.09879,1031.0076638437517,2016-12-19T23:23:13Z,1031.0076638437517,2016-12-19T23:23:13Z
Cargo,STAR ISFJORD,307788,54.75713,18.99659,968.9354140502172,2016-12-19T11:43:02Z,6695.786288851621,2016-12-19T12:01:09Z
Cargo,STAR ISFJORD,307788,54.69692,18.99504,6695.786288851621,2016-12-19T12:01:09Z,6695.786288851621,2016-12-19T12:01:09Z
Cargo,STEENBANK,265873,54.63259,19.90238,0,2016-12-16T01:37:02Z,2167.9825116079733,2016-12-16T01:45:02Z
Cargo,STEENBANK,265873,54.6338,19.936,2167.9825116079733,2016-12-16T01:45:02Z,2167.9825116079733,2016-12-16T01:45:02Z
Cargo,STENA FORERUNNER,326898,54.676,18.94767,0,2016-12-18T15:11:02Z,11059.007856995471,2016-12-18T15:13:01Z
Cargo,STENA FORERUNNER,326898,54.75467,18.84233,11059.007856995471,2016-12-18T15:13:01Z,11059.007856995471,2016-12-18T15:13:01Z
Cargo,STORTEBEKER,204416,59.90795,30.06853,659.7640003789172,2016-12-17T03:49:04Z,1283.8564059760402,2016-12-17T03:51:03Z
Cargo,STORTEBEKER,204416,59.90365,30.0899,1283.8564059760402,2016-12-17T03:51:03Z,1283.8564059760402,2016-12-17T03:51:03Z
Cargo,STRANDJA,285833,55.72063,20.89128,0,2016-12-19T03:45:06Z,1045.9034905238416,2016-12-19T03:47:06Z
Cargo,STRANDJA,285833,55.72252,20.90764,1045.9034905238416,2016-12-19T03:47:06Z,1045.9034905238416,2016-12-19T03:47:06Z
Cargo,STRATEGIC ENCOUNTER,727807,54.63309,19.89434,0,2016-12-16T09:45:03Z,8497.434324865448,2016-12-16T09:47:02Z
Cargo,STRATEGIC ENCOUNTER,727807,54.64101,20.02567,8497.434324865448,2016-12-16T09:47:02Z,8497.434324865448,2016-12-16T09:47:02Z
Cargo,SUEDEROOG,205264,59.90907,30.06266,632.8053356806063,2016-12-14T19:33:04Z,1270.9516901936277,2016-12-14T19:35:04Z
Cargo,SUEDEROOG,205264,59.91335,30.04152,1270.9516901936277,2016-12-14T19:35:04Z,1270.9516901936277,2016-12-14T19:35:04Z
Cargo,SVYATITEL ALEKSIY,348769,54.64499,20.05175,0,2016-12-15T12:11:03Z,2566.17037225266,2016-12-15T12:13:02Z
Cargo,SVYATITEL ALEKSIY,348769,54.63951,20.01301,2566.17037225266,2016-12-15T12:13:02Z,2566.17037225266,2016-12-15T12:13:02Z
Cargo,TANAIS,948265,54.38043,18.66072,0,2016-12-16T14:19:01Z,1190.0744377888034,2016-12-16T14:23:01Z
Cargo,TANAIS,948265,54.36997,18.66461,1190.0744377888034,2016-12-16T14:23:01Z,1190.0744377888034,2016-12-16T14:23:01Z
Cargo,TASMAN,206519,57.98169,11.74611,609.2573627959058,2016-12-16T15:43:05Z,2548.201947558114,2016-12-16T15:51:05Z
Cargo,TASMAN,206519,57.96387,11.71894,2548.201947558114,2016-12-16T15:51:05Z,2548.201947558114,2016-12-16T15:51:05Z
Cargo,TENDER1,155585,57.62297,11.80981,0,2016-12-16T09:01:07Z,1218.3933657490536,2016-12-16T09:03:05Z
Cargo,TENDER1,155585,57.61236,11.8047,1218.3933657490536,2016-12-16T09:03:05Z,1218.3933657490536,2016-12-16T09:03:05Z
Cargo,TERSCHELLING,268899,59.91047,30.05565,702.0479653875349,2016-12-16T05:55:05Z,1366.4715870461523,2016-12-16T05:57:03Z
Cargo,TERSCHELLING,268899,59.90586,30.07837,1366.4715870461523,2016-12-16T05:57:03Z,1366.4715870461523,2016-12-16T05:57:03Z
Cargo,THEA MARIEKE,265510,54.53445,18.79455,1284.726329514576,2016-12-16T20:27:06Z,1925.8771764532773,2016-12-16T20:29:02Z
Cargo,THEA MARIEKE,265510,54.52118,18.77537,1925.8771764532773,2016-12-16T20:29:02Z,1925.8771764532773,2016-12-16T20:29:02Z
Cargo,THOR INTEGRITY,732076,55.7284,21.0655,0,2016-12-19T22:23:13Z,950.2837884998172,2016-12-19T22:25:06Z
Cargo,THOR INTEGRITY,732076,55.72865,21.05033,950.2837884998172,2016-12-19T22:25:06Z,950.2837884998172,2016-12-19T22:25:06Z
Cargo,THULELAND,327250,57.65663,11.74896,0,2016-12-14T13:31:05Z,1894.674922555569,2016-12-14T13:33:06Z
Cargo,THULELAND,327250,57.65178,11.71843,1894.674922555569,2016-12-14T13:33:06Z,1894.674922555569,2016-12-14T13:33:06Z
Cargo,THURKUS,122562,54.54402,18.82845,0,2016-12-16T12:55:01Z,3051.7019974167106,2016-12-16T12:57:02Z
Cargo,THURKUS,122562,54.56498,18.859,3051.7019974167106,2016-12-16T12:57:02Z,3051.7019974167106,2016-12-16T12:57:02Z
Cargo,TIDAN,182418,57.60259,11.65599,712.1848491219932,2016-12-15T10:11:05Z,596615.787388869,2016-12-17T04:33:06Z
Cargo,TIDAN,182418,55.71618,20.80508,596615.787388869,2016-12-17T04:33:06Z,596615.787388869,2016-12-17T04:33:06Z
Cargo,TINA,259202,54.55447,18.84484,0,2016-12-13T15:49:01Z,1560.1318889929555,2016-12-13T15:51:01Z
Cargo,TINA,259202,54.56521,18.86041,1560.1318889929555,2016-12-13T15:51:01Z,1560.1318889929555,2016-12-13T15:51:01Z
Cargo,TOLLUND,124752,54.66673,19.819,0,2016-12-17T16:23:02Z,54416.99452082531,2016-12-17T19:17:01Z
Cargo,TOLLUND,124752,54.78199,18.99543,54416.99452082531,2016-12-17T19:17:01Z,54416.99452082531,2016-12-17T19:17:01Z
Cargo,TRADER BULK,182333,57.60003,11.65679,561.7843542406018,2016-12-19T03:19:05Z,1952.521621964297,2016-12-19T03:31:05Z
Cargo,TRADER BULK,182333,57.60091,11.68952,1952.521621964297,2016-12-19T03:31:05Z,1952.521621964297,2016-12-19T03:31:05Z
Cargo,TRANSOSPREY,206401,54.72713,18.99946,924.1808021830386,2016-12-16T22:13:02Z,875565.9429053785,2016-12-18T14:43:03Z
Cargo,TRANSOSPREY,206401,59.92068,30.0053,875565.9429053785,2016-12-18T14:43:03Z,875565.9429053785,2016-12-18T14:43:03Z
Cargo,TRAVEBERG,364187,55.6643,21.14626,550.8307440852703,2016-12-16T15:43:06Z,2758.8747715506215,2016-12-16T15:53:06Z
Cargo,TRAVEBERG,364187,55.68792,21.13279,2758.8747715506215,2016-12-16T15:53:06Z,2758.8747715506215,2016-12-16T15:53:06Z
Cargo,TRICA,254318,59.88806,30.2011,0,2016-12-20T09:11:04Z,3962.8247004868913,2016-12-20T09:31:04Z
Cargo,TRICA,254318,59.89521,30.1315,3962.8247004868913,2016-12-20T09:31:04Z,3962.8247004868913,2016-12-20T09:31:04Z
Cargo,TRUE LOVE,2892026,55.74601,20.86242,458.31967705310313,2016-12-15T13:25:07Z,1055.5998967355483,2016-12-15T13:27:06Z
Cargo,TRUE LOVE,2892026,55.74756,20.84578,1055.5998967355483,2016-12-15T13:27:06Z,1055.5998967355483,2016-12-15T13:27:06Z
Cargo,UFA,290089,54.64828,20.07527,4892.756206057992,2016-12-14T02:47:02Z,23960.717941788706,2016-12-15T09:33:04Z
Cargo,UFA,290089,54.69624,20.43857,23960.717941788706,2016-12-15T09:33:04Z,23960.717941788706,2016-12-15T09:33:04Z
Cargo,USOLIE,755518,55.72911,20.93131,895.7987187245303,2016-12-14T10:17:06Z,935.987258954642,2016-12-14T10:19:06Z
Cargo,USOLIE,755518,55.72801,20.91649,935.987258954642,2016-12-14T10:19:06Z,935.987258954642,2016-12-14T10:19:06Z
Cargo,VALENCIA EXPRESS,370837,59.89643,30.12481,551.1575894127881,2016-12-19T14:25:04Z,1084.3276691921146,2016-12-19T14:27:03Z
Cargo,VALENCIA EXPRESS,370837,59.89277,30.14283,1084.3276691921146,2016-12-19T14:27:03Z,1084.3276691921146,2016-12-19T14:27:03Z
Cargo,VANTAGE WAVE,756358,55.70218,20.87593,9.464208603917871,2016-12-14T01:43:06Z,14790.62851357823,2016-12-14T10:11:07Z
Cargo,VANTAGE WAVE,756358,55.71448,21.11101,14790.62851357823,2016-12-14T10:11:07Z,14790.62851357823,2016-12-14T10:11:07Z
Cargo,VARVARA,124152,59.91079,30.05415,0,2016-12-13T11:31:04Z,667.7505727458868,2016-12-13T11:33:03Z
Cargo,VARVARA,124152,59.91301,30.04302,667.7505727458868,2016-12-13T11:33:03Z,667.7505727458868,2016-12-13T11:33:03Z
Cargo,VASTANVIK,319974,54.53333,18.81033,1446.7966485291993,2016-12-20T09:11:02Z,7378.357055980686,2016-12-20T09:31:02Z
Cargo,VASTANVIK,319974,54.58216,18.88781,7378.357055980686,2016-12-20T09:31:02Z,7378.357055980686,2016-12-20T09:31:02Z
Cargo,VENTURA,366974,55.19872,19.96576,915.9783549036554,2016-12-17T00:05:03Z,72233.65875272159,2016-12-17T04:03:05Z
Cargo,VENTURA,366974,55.63885,20.80759,72233.65875272159,2016-12-17T04:03:05Z,72233.65875272159,2016-12-17T04:03:05Z
Cargo,VICTORIABORG,265269,55.66924,21.14524,463.22430463124283,2016-12-20T10:03:06Z,5941.404733958687,2016-12-20T10:27:06Z
Cargo,VICTORIABORG,265269,55.71801,21.10651,5941.404733958687,2016-12-20T10:27:06Z,5941.404733958687,2016-12-20T10:27:06Z
Cargo,VICTORINE,117309,57.64971,11.71424,0,2016-12-19T17:27:05Z,2208.8509187376326,2016-12-19T17:29:05Z
Cargo,VICTORINE,117309,57.65609,11.7494,2208.8509187376326,2016-12-19T17:29:05Z,2208.8509187376326,2016-12-19T17:29:05Z
Cargo,VIDFOSS,366516,59.90969,30.05993,662.9570615829359,2016-12-15T10:07:04Z,1320.327311705374,2016-12-15T10:09:03Z
Cargo,VIDFOSS,366516,59.9142,30.03802,1320.327311705374,2016-12-15T10:09:03Z,1320.327311705374,2016-12-15T10:09:03Z
Cargo,VINGAREN,182428,55.75435,20.80184,0,2016-12-13T12:47:06Z,713851.5336458683,2016-12-18T14:55:03Z
Cargo,VINGAREN,182428,59.92171,30.00018,713851.5336458683,2016-12-18T14:55:03Z,713851.5336458683,2016-12-18T14:55:03Z
Cargo,VIONA,300093,57.60448,11.66448,0,2016-12-20T01:25:06Z,604.9405629991342,2016-12-20T01:27:05Z
Cargo,VIONA,300093,57.60928,11.66926,604.9405629991342,2016-12-20T01:27:05Z,604.9405629991342,2016-12-20T01:27:05Z
Cargo,VITA,359410,55.72998,21.06494,0,2016-12-14T21:37:06Z,1191.397094815062,2016-12-14T21:39:06Z
Cargo,VITA,359410,55.73095,21.04599,1191.397094815062,2016-12-14T21:39:06Z,1191.397094815062,2016-12-14T21:39:06Z
Cargo,VITIM,145203,54.45097,18.99401,1012.2364262106443,2016-12-15T04:43:02Z,183796.8302058317,2016-12-17T15:39:06Z
Cargo,VITIM,145203,55.74082,20.80078,183796.8302058317,2016-12-17T15:39:06Z,183796.8302058317,2016-12-17T15:39:06Z
Cargo,VLADIMIR,123061,59.90915,30.06179,682.4143941048245,2016-12-17T06:37:04Z,1262.2098273313786,2016-12-17T06:39:05Z
Cargo,VLADIMIR,123061,59.90486,30.08275,1262.2098273313786,2016-12-17T06:39:05Z,1262.2098273313786,2016-12-17T06:39:05Z
Cargo,WALTER HAMMANN,152955,57.62553,11.68675,500.4760554250265,2016-12-20T10:59:05Z,2834.8756814208646,2016-12-20T11:11:05Z
Cargo,WALTER HAMMANN,152955,57.64769,11.7103,2834.8756814208646,2016-12-20T11:11:05Z,2834.8756814208646,2016-12-20T11:11:05Z
Cargo,WES AMELIE,365934,59.91872,30.0146,725.9020725195454,2016-12-16T13:53:05Z,1517.2482965936688,2016-12-16T13:55:03Z
Cargo,WES AMELIE,365934,59.91361,30.03984,1517.2482965936688,2016-12-16T13:55:03Z,1517.2482965936688,2016-12-16T13:55:03Z
Cargo,WES JANINE,366006,54.45587,18.99905,0,2016-12-15T15:29:01Z,35572.67252469085,2016-12-15T16:53:02Z
Cargo,WES JANINE,366006,54.77571,18.98727,35572.67252469085,2016-12-15T16:53:02Z,35572.67252469085,2016-12-15T16:53:02Z
Cargo,WIEBKE D,359605,54.69908,18.86269,0,2016-12-15T19:59:02Z,1178.9884747495391,2016-12-15T20:01:01Z
Cargo,WIEBKE D,359605,54.69349,18.87828,1178.9884747495391,2016-12-15T20:01:01Z,1178.9884747495391,2016-12-15T20:01:01Z
Cargo,WILSON BILBAO,287761,54.67572,18.93328,0,2016-12-14T19:55:01Z,2918.9923666977743,2016-12-14T19:57:02Z
Cargo,WILSON BILBAO,287761,54.65024,18.92236,2918.9923666977743,2016-12-14T19:57:02Z,2918.9923666977743,2016-12-14T19:57:02Z
Cargo,WILSON HOLLA,362411,54.69785,18.95473,0,2016-12-19T15:01:02Z,1547.8752738388619,2016-12-19T15:03:02Z
Cargo,WILSON HOLLA,362411,54.68437,18.94872,1547.8752738388619,2016-12-19T15:03:02Z,1547.8752738388619,2016-12-19T15:03:02Z
Cargo,WILSON SKY,122250,54.67703,18.9902,451.69216644230465,2016-12-13T22:35:02Z,176760.5057208234,2016-12-15T16:05:07Z
Cargo,WILSON SKY,122250,55.69328,21.13153,176760.5057208234,2016-12-15T16:05:07Z,176760.5057208234,2016-12-15T16:05:07Z
Cargo,WILSON VOLOS,365383,54.6076,18.91041,0,2016-12-16T22:57:02Z,2978.026700416788,2016-12-16T22:59:02Z
Cargo,WILSON VOLOS,365383,54.63191,18.92982,2978.026700416788,2016-12-16T22:59:02Z,2978.026700416788,2016-12-16T22:59:02Z
Cargo,WINTER BAY,402701,55.73163,20.98156,755.2144167312949,2016-12-15T15:01:06Z,1441.189006164192,2016-12-15T15:07:07Z
Cargo,WINTER BAY,402701,55.73263,20.95861,1441.189006164192,2016-12-15T15:07:07Z,1441.189006164192,2016-12-15T15:07:07Z
Cargo,WMS GRONINGEN,123222,59.91378,30.03969,764.4724107879455,2016-12-19T20:37:04Z,1454.357896364449,2016-12-19T20:39:03Z
Cargo,WMS GRONINGEN,123222,59.91872,30.01553,1454.357896364449,2016-12-19T20:39:03Z,1454.357896364449,2016-12-19T20:39:03Z
Cargo,WYBELSUM,205994,59.9141,30.03724,617.7527231299581,2016-12-19T15:27:04Z,1172.4106684481198,2016-12-19T15:29:03Z
Cargo,WYBELSUM,205994,59.91015,30.05674,1172.4106684481198,2016-12-19T15:29:03Z,1172.4106684481198,2016-12-19T15:29:03Z
Cargo,X-PRESS ETNA,121902,59.90613,30.07705,519.436995844411,2016-12-19T15:11:12Z,1048.1488892906034,2016-12-19T15:13:03Z
Cargo,X-PRESS ETNA,121902,59.90249,30.09439,1048.1488892906034,2016-12-19T15:13:03Z,1048.1488892906034,2016-12-19T15:13:03Z
Cargo,YAMAL KRECHET,757296,54.7202,18.97866,820.0145001840526,2016-12-20T10:17:02Z,3382.5832144196206,2016-12-20T10:25:02Z
Cargo,YAMAL KRECHET,757296,54.69192,18.95926,3382.5832144196206,2016-12-20T10:25:02Z,3382.5832144196206,2016-12-20T10:25:02Z
Cargo,ZAMOSKVORECHYE,283815,54.68554,20.17347,304.4972841835527,2016-12-15T14:51:03Z,3378.495939157289,2016-12-15T15:03:03Z
Cargo,ZAMOSKVORECHYE,283815,54.68573,20.22603,3378.495939157289,2016-12-15T15:03:03Z,3378.495939157289,2016-12-15T15:03:03Z
Cargo,ZEALAND BEATRIX,271828,55.72452,20.96704,0,2016-12-18T16:17:06Z,1069.0181458923416,2016-12-18T16:19:06Z
Cargo,ZEALAND BEATRIX,271828,55.72719,20.98344,1069.0181458923416,2016-12-18T16:19:06Z,1069.0181458923416,2016-12-18T16:19:06Z
Cargo,ZENIT,754206,59.91341,30.04125,757.9282467916474,2016-12-19T10:47:04Z,1496.7958772538284,2016-12-19T10:49:03Z
Cargo,ZENIT,754206,59.9185,30.01639,1496.7958772538284,2016-12-19T10:49:03Z,1496.7958772538284,2016-12-19T10:49:03Z
Cargo,ZHEN ZHU HAI,3542150,59.87511,30.19489,0,2016-12-13T23:39:04Z,7.891743799140106,2016-12-14T20:41:04Z
Cargo,ZHEN ZHU HAI,3542150,59.8751,30.19503,7.891743799140106,2016-12-14T20:41:04Z,7.891743799140106,2016-12-14T20:41:04Z
Fishing,100,353293,55.78035,20.80773,285.6518201267747,2016-12-14T20:59:07Z,2300.755808642082,2016-12-19T01:21:06Z
Fishing,100,353293,55.7599,20.80213,2300.755808642082,2016-12-19T01:21:06Z,2300.755808642082,2016-12-19T01:21:06Z
Fishing,169,353306,55.72095,21.10062,506.96880480985743,2016-12-17T18:07:06Z,1770.112789507184,2016-12-17T18:15:07Z
Fishing,169,353306,55.70719,21.11483,1770.112789507184,2016-12-17T18:15:07Z,1770.112789507184,2016-12-17T18:15:07Z
Fishing,652,353310,55.77225,20.80305,291.62014301667506,2016-12-15T08:31:06Z,1558.7607185432814,2016-12-18T07:51:06Z
Fishing,652,353310,55.75827,20.80489,1558.7607185432814,2016-12-18T07:51:06Z,1558.7607185432814,2016-12-18T07:51:06Z
Fishing,694,353287,55.77372,20.80183,903.8412537612779,2016-12-14T22:45:09Z,2871.0530741289854,2016-12-17T23:35:06Z
Fishing,694,353287,55.7479,20.80184,2871.0530741289854,2016-12-17T23:35:06Z,2871.0530741289854,2016-12-17T23:35:06Z
Fishing,756,353315,55.70136,21.11934,0,2016-12-15T00:01:15Z,5672.184132502879,2016-12-15T00:09:07Z
Fishing,756,353315,55.73271,21.0479,5672.184132502879,2016-12-15T00:09:07Z,5672.184132502879,2016-12-15T00:09:07Z
Fishing,AGNESE,352224,54.61623,18.89098,0,2016-12-16T06:57:02Z,1213.7396841483403,2016-12-16T06:59:02Z
Fishing,AGNESE,352224,54.60652,18.88237,1213.7396841483403,2016-12-16T06:59:02Z,1213.7396841483403,2016-12-16T06:59:02Z
Fishing,AHLMA,327150,57.65745,11.82032,544.0364094060931,2016-12-20T07:57:07Z,1141.3724169614259,2016-12-20T07:59:04Z
Fishing,AHLMA,327150,57.65135,11.83575,1141.3724169614259,2016-12-20T07:59:04Z,1141.3724169614259,2016-12-20T07:59:04Z
Fishing,ALVSBORG,326438,57.69021,11.70392,0,2016-12-19T07:47:05Z,1338.696200943191,2016-12-19T07:49:06Z
Fishing,ALVSBORG,326438,57.70015,11.69121,1338.696200943191,2016-12-19T07:49:06Z,1338.696200943191,2016-12-19T07:49:06Z
Fishing,ANCILLA WLA-68,316242,54.79672,18.4304,0,2016-12-18T03:47:06Z,852.383557885868,2016-12-18T03:49:07Z
Fishing,ANCILLA WLA-68,316242,54.79977,18.4426,852.383557885868,2016-12-18T03:49:07Z,852.383557885868,2016-12-18T03:49:07Z
Fishing,ATLANT,353330,55.77094,20.80019,686.4323063323706,2016-12-15T00:07:06Z,7076.793244111645,2016-12-16T22:45:06Z
Fishing,ATLANT,353330,55.70748,20.80876,7076.793244111645,2016-12-16T22:45:06Z,7076.793244111645,2016-12-16T22:45:06Z
Fishing,ATLANTIDA,345600,54.63342,19.8941,0,2016-12-14T23:31:02Z,4834.465566579613,2016-12-14T23:33:03Z
Fishing,ATLANTIDA,345600,54.63615,19.96907,4834.465566579613,2016-12-14T23:33:03Z,4834.465566579613,2016-12-14T23:33:03Z
Fishing,BALTICA,316599,54.42768,18.99997,507.72024473964393,2016-12-15T08:59:02Z,31106.090511889917,2016-12-16T02:19:01Z
Fishing,BALTICA,316599,54.70739,18.99247,31106.090511889917,2016-12-16T02:19:01Z,31106.090511889917,2016-12-16T02:19:01Z
Fishing,BISCAYA GG34,325703,57.66939,11.62202,346.6280942517726,2016-12-20T08:23:05Z,625.0298515967506,2016-12-20T08:25:05Z
Fishing,BISCAYA GG34,325703,57.67314,11.62985,625.0298515967506,2016-12-20T08:25:05Z,625.0298515967506,2016-12-20T08:25:05Z
Fishing,BOOTES,3351142,54.48476,18.71676,694.6986704900322,2016-12-19T00:21:07Z,1450.0994695354623,2016-12-19T00:23:02Z
Fishing,BOOTES,3351142,54.47595,18.70021,1450.0994695354623,2016-12-19T00:23:02Z,1450.0994695354623,2016-12-19T00:23:02Z
Fishing,CHRISTINA MICHELLE,154872,54.79703,18.43237,198.6291667147685,2016-12-13T23:11:07Z,733.3835809224244,2016-12-13T23:15:07Z
Fishing,CHRISTINA MICHELLE,154872,54.79712,18.42093,733.3835809224244,2016-12-13T23:15:07Z,733.3835809224244,2016-12-13T23:15:07Z
Fishing,CLIPPERTON,327566,57.605,11.61267,427.0973437513971,2016-12-14T16:25:05Z,777.1811311805736,2016-12-14T16:27:06Z
Fishing,CLIPPERTON,327566,57.603,11.62517,777.1811311805736,2016-12-14T16:27:06Z,777.1811311805736,2016-12-14T16:27:06Z
Fishing,CLIPPFJORD,327673,57.60124,11.79403,NA,2016-12-19T07:31:05Z,224.69279242199397,2016-12-19T07:33:06Z
Fishing,CLIPPFJORD,327673,57.6004,11.7906,224.69279242199397,2016-12-19T07:33:06Z,224.69279242199397,2016-12-19T07:33:06Z
Fishing,DANAFJORD,326456,57.67466,11.66486,133.22199332738464,2016-12-17T07:39:06Z,135.3645289550221,2016-12-17T12:51:05Z
Fishing,DANAFJORD,326456,57.67345,11.66461,135.3645289550221,2016-12-17T12:51:05Z,135.3645289550221,2016-12-17T12:51:05Z
Fishing,DAR-10,3061267,54.79816,18.81418,0,2016-12-13T16:47:02Z,23739.366100471103,2016-12-13T22:53:07Z
Fishing,DAR-10,3061267,54.79982,18.44383,23739.366100471103,2016-12-13T22:53:07Z,23739.366100471103,2016-12-13T22:53:07Z
Fishing,DARIUS,353278,55.62143,20.80016,635.1274124019673,2016-12-15T10:43:07Z,28129.961442023196,2016-12-16T06:25:08Z
Fishing,DARIUS,353278,55.87436,20.80899,28129.961442023196,2016-12-16T06:25:08Z,28129.961442023196,2016-12-16T06:25:08Z
Fishing,DZI-85,316133,54.79667,18.42983,0,2016-12-18T03:41:07Z,3029.2406704968967,2016-12-18T19:19:06Z
Fishing,DZI-85,316133,54.79833,18.477,3029.2406704968967,2016-12-18T19:19:06Z,3029.2406704968967,2016-12-18T19:19:06Z
Fishing,DZI-92 ATILIUS,316079,54.79614,18.42568,346.45852733998566,2016-12-20T04:09:07Z,1046.8454079200073,2016-12-20T04:11:13Z
Fishing,DZI-92 ATILIUS,316079,54.79985,18.44069,1046.8454079200073,2016-12-20T04:11:13Z,1046.8454079200073,2016-12-20T04:11:13Z
Fishing,ENSKAR,1442009,57.76529,11.6309,0,2016-12-14T12:45:05Z,2015.8235705927177,2016-12-14T12:47:05Z
Fishing,ENSKAR,1442009,57.7487,11.6446,2015.8235705927177,2016-12-14T12:47:05Z,2015.8235705927177,2016-12-14T12:47:05Z
Fishing,EROS AV HONO,3622626,57.72377,11.66287,0,2016-12-14T17:11:04Z,1045.6120305451618,2016-12-14T17:13:05Z
Fishing,EROS AV HONO,3622626,57.71445,11.66521,1045.6120305451618,2016-12-14T17:13:05Z,1045.6120305451618,2016-12-14T17:13:05Z
Fishing,FENIKSS,352391,54.79708,18.43624,394.02449116072313,2016-12-19T23:49:06Z,408.13616723832405,2016-12-19T23:51:06Z
Fishing,FENIKSS,352391,54.79875,18.44191,408.13616723832405,2016-12-19T23:51:06Z,408.13616723832405,2016-12-19T23:51:06Z
Fishing,FRANEK ZUBRZYCKI,316934,54.63113,18.87422,0,2016-12-15T15:19:01Z,1135.266379156644,2016-12-15T15:21:02Z
Fishing,FRANEK ZUBRZYCKI,316934,54.6411,18.87042,1135.266379156644,2016-12-15T15:21:02Z,1135.266379156644,2016-12-15T15:21:02Z
Fishing,GANTHI,327445,57.60079,11.79128,111.4364638816405,2016-12-19T05:27:05Z,11085.209529658498,2016-12-19T16:17:05Z
Fishing,GANTHI,327445,57.60175,11.60523,11085.209529658498,2016-12-19T16:17:05Z,11085.209529658498,2016-12-19T16:17:05Z
Fishing,GDA-18,315960,54.79884,18.76773,0,2016-12-15T08:49:07Z,4522.616444651865,2016-12-15T13:23:02Z
Fishing,GDA-18,315960,54.79977,18.83827,4522.616444651865,2016-12-15T13:23:02Z,4522.616444651865,2016-12-15T13:23:02Z
Fishing,GDA-20,315959,54.67441,18.99993,166.16613585073546,2016-12-15T07:29:02Z,29002.985535620217,2016-12-16T19:01:01Z
Fishing,GDA-20,315959,54.41359,18.99597,29002.985535620217,2016-12-16T19:01:01Z,29002.985535620217,2016-12-16T19:01:01Z
Fishing,GG-38 TOVEN,3804786,57.9156,11.60165,225.10399711961205,2016-12-17T08:11:05Z,1230.2143430649417,2016-12-17T09:31:04Z
Fishing,GG-38 TOVEN,3804786,57.90454,11.60112,1230.2143430649417,2016-12-17T09:31:04Z,1230.2143430649417,2016-12-17T09:31:04Z
Fishing,GG-391 ELISABETH,4387258,57.67155,11.62779,0,2016-12-15T06:29:05Z,888.4868034287908,2016-12-15T06:31:05Z
Fishing,GG-391 ELISABETH,4387258,57.66545,11.61814,888.4868034287908,2016-12-15T06:31:05Z,888.4868034287908,2016-12-15T06:31:05Z
Fishing,GG-668 SILVER,323609,57.62911,11.82257,327.26849007427734,2016-12-16T15:43:07Z,2120.6255360000987,2016-12-16T15:51:05Z
Fishing,GG-668 SILVER,323609,57.64779,11.82975,2120.6255360000987,2016-12-16T15:51:05Z,2120.6255360000987,2016-12-16T15:51:05Z
Fishing,GG-690 VINGASAND,325546,57.62533,11.82135,0,2016-12-19T10:35:08Z,748.9819210808233,2016-12-19T10:37:04Z
Fishing,GG-690 VINGASAND,325546,57.63206,11.82187,748.9819210808233,2016-12-19T10:37:04Z,748.9819210808233,2016-12-19T10:37:04Z
Fishing,GG102 MAUDAN,324714,57.69895,11.64075,0,2016-12-13T13:57:06Z,2823.814927489777,2016-12-14T15:23:05Z
Fishing,GG102 MAUDAN,324714,57.71507,11.60402,2823.814927489777,2016-12-14T15:23:05Z,2823.814927489777,2016-12-14T15:23:05Z
Fishing,GG1206 DANO,324534,57.63395,11.82328,864.7385182352108,2016-12-17T22:17:07Z,1294.2618394719877,2016-12-17T22:19:05Z
Fishing,GG1206 DANO,324534,57.64334,11.83613,1294.2618394719877,2016-12-17T22:19:05Z,1294.2618394719877,2016-12-17T22:19:05Z
Fishing,GG32 TRISTAN,3352463,57.7686,11.60609,393.4874273042961,2016-12-19T02:57:06Z,2299.426149904992,2016-12-19T18:05:05Z
Fishing,GG32 TRISTAN,3352463,57.748,11.60948,2299.426149904992,2016-12-19T18:05:05Z,2299.426149904992,2016-12-19T18:05:05Z
Fishing,GG43 ANNA,4653928,57.73392,11.67183,NA,2016-12-18T11:33:05Z,71.20391477892876,2016-12-18T11:47:06Z
Fishing,GG43 ANNA,4653928,57.7334,11.67113,71.20391477892876,2016-12-18T11:47:06Z,71.20391477892876,2016-12-18T11:47:06Z
Fishing,GG75 MANILL,3814579,57.62975,11.78354,0,2016-12-15T13:55:05Z,1000.5027759543611,2016-12-15T13:57:06Z
Fishing,GG75 MANILL,3814579,57.6271,11.76748,1000.5027759543611,2016-12-15T13:57:06Z,1000.5027759543611,2016-12-15T13:57:06Z
Fishing,GG976 SVANFORS,4032661,57.93022,11.60012,0,2016-12-19T17:49:05Z,119.87249680361363,2016-12-19T18:45:05Z
Fishing,GG976 SVANFORS,4032661,57.92953,11.60168,119.87249680361363,2016-12-19T18:45:05Z,119.87249680361363,2016-12-19T18:45:05Z
Fishing,GLITTFORS,327052,57.74045,11.60468,0,2016-12-19T04:25:06Z,15998.336708658146,2016-12-19T15:23:05Z
Fishing,GLITTFORS,327052,57.60073,11.66888,15998.336708658146,2016-12-19T15:23:05Z,15998.336708658146,2016-12-19T15:23:05Z
Fishing,GOTTSKAR,326955,57.71786,11.66545,0,2016-12-19T21:41:05Z,1077.3444133360497,2016-12-19T21:43:05Z
Fishing,GOTTSKAR,326955,57.70826,11.6679,1077.3444133360497,2016-12-19T21:43:05Z,1077.3444133360497,2016-12-19T21:43:05Z
Fishing,HEL-112,315805,54.79729,18.80079,282.448142584148,2016-12-15T00:05:01Z,9575.234476036954,2016-12-16T12:09:02Z
Fishing,HEL-112,315805,54.79933,18.65145,9575.234476036954,2016-12-16T12:09:02Z,9575.234476036954,2016-12-16T12:09:02Z
Fishing,HEL-23,315903,54.79855,18.87031,262.4270727212486,2016-12-15T12:49:02Z,5169.424273638127,2016-12-17T04:31:02Z
Fishing,HEL-23,315903,54.79923,18.95095,5169.424273638127,2016-12-17T04:31:02Z,5169.424273638127,2016-12-17T04:31:02Z
Fishing,HEL-95,1105688,54.63875,18.99859,181.16588427700586,2016-12-15T10:41:02Z,5229.5436680815155,2016-12-15T15:43:02Z
Fishing,HEL-95,1105688,54.59192,18.9911,5229.5436680815155,2016-12-15T15:43:02Z,5229.5436680815155,2016-12-15T15:43:02Z
Fishing,HEL-102,316061,54.79677,18.76717,0,2016-12-14T23:57:08Z,4149.844849476072,2016-12-16T20:23:02Z
Fishing,HEL-102,316061,54.79534,18.70248,4149.844849476072,2016-12-16T20:23:02Z,4149.844849476072,2016-12-16T20:23:02Z
Fishing,HEL-103,316056,54.79896,18.58353,784.7456780395249,2016-12-15T20:07:07Z,17220.2684951553,2016-12-16T05:59:02Z
Fishing,HEL-103,316056,54.68947,18.77327,17220.2684951553,2016-12-16T05:59:02Z,17220.2684951553,2016-12-16T05:59:02Z
Fishing,HEL-111,315804,54.79856,18.73015,0,2016-12-18T06:13:08Z,8043.792709839969,2016-12-19T03:45:01Z
Fishing,HEL-111,315804,54.79767,18.85563,8043.792709839969,2016-12-19T03:45:01Z,8043.792709839969,2016-12-19T03:45:01Z
Fishing,HEL-125,1198107,54.52165,18.55068,NA,2016-12-15T14:37:08Z,236.56424021942644,2016-12-16T02:33:07Z
Fishing,HEL-125,1198107,54.52025,18.54792,236.56424021942644,2016-12-16T02:33:07Z,236.56424021942644,2016-12-16T02:33:07Z
Fishing,HEL-150,315901,54.43809,18.99997,125.01297227978309,2016-12-19T10:55:02Z,11489.30033688714,2016-12-19T16:07:02Z
Fishing,HEL-150,315901,54.54118,18.98796,11489.30033688714,2016-12-19T16:07:02Z,11489.30033688714,2016-12-19T16:07:02Z
Fishing,HEL-152,316004,54.79922,18.70689,0,2016-12-18T10:03:07Z,6611.037553302687,2016-12-19T05:51:02Z
Fishing,HEL-152,316004,54.79939,18.81003,6611.037553302687,2016-12-19T05:51:02Z,6611.037553302687,2016-12-19T05:51:02Z
Fishing,HEL-30,316405,54.79971,18.80706,81.22571099685375,2016-12-15T07:33:02Z,24217.16662034284,2016-12-16T16:39:07Z
Fishing,HEL-30,316405,54.79663,18.42929,24217.16662034284,2016-12-16T16:39:07Z,24217.16662034284,2016-12-16T16:39:07Z
Fishing,HEL-4,316334,54.74201,18.99223,0,2016-12-16T14:31:01Z,12864.391994645881,2016-12-18T14:15:01Z
Fishing,HEL-4,316334,54.62632,18.99098,12864.391994645881,2016-12-18T14:15:01Z,12864.391994645881,2016-12-18T14:15:01Z
Fishing,HEL-6,4100642,54.74726,18.98651,0,2016-12-17T06:07:02Z,1108.977785133069,2016-12-17T06:09:01Z
Fishing,HEL-6,4100642,54.73862,18.97788,1108.977785133069,2016-12-17T06:09:01Z,1108.977785133069,2016-12-17T06:09:01Z
Fishing,INGUN,326947,57.69784,11.915,636.1434659835504,2016-12-15T06:15:08Z,1371.0853010313785,2016-12-15T06:17:06Z
Fishing,INGUN,326947,57.69016,11.89695,1371.0853010313785,2016-12-15T06:17:06Z,1371.0853010313785,2016-12-15T06:17:06Z
Fishing,JAS-102,315927,54.56517,18.99999,208.24467691511128,2016-12-17T06:17:02Z,2420.985492736925,2016-12-17T15:45:01Z
Fishing,JAS-102,315927,54.58678,18.99541,2420.985492736925,2016-12-17T15:45:01Z,2420.985492736925,2016-12-17T15:45:01Z
Fishing,JAS-31,315998,54.79669,18.92915,745.192437007284,2016-12-16T00:49:01Z,3521.4240377505994,2016-12-17T15:37:02Z
Fishing,JAS-31,315998,54.79908,18.98393,3521.4240377505994,2016-12-17T15:37:02Z,3521.4240377505994,2016-12-17T15:37:02Z
Fishing,JAS-39,316046,54.59993,18.80091,920.5021970700633,2016-12-17T14:29:02Z,13373.390604471706,2016-12-19T04:33:02Z
Fishing,JAS-39,316046,54.69519,18.67402,13373.390604471706,2016-12-19T04:33:02Z,13373.390604471706,2016-12-19T04:33:02Z
Fishing,JAS-51,316050,54.42486,18.99862,137.2134891956802,2016-12-19T07:53:02Z,8926.34970014962,2016-12-19T12:47:01Z
Fishing,JAS-51,316050,54.50483,18.98656,8926.34970014962,2016-12-19T12:47:01Z,8926.34970014962,2016-12-19T12:47:01Z
Fishing,JAS-61,1124170,54.60688,18.76464,0,2016-12-15T15:29:06Z,1357.7440475427682,2016-12-15T15:31:01Z
Fishing,JAS-61,1124170,54.61336,18.74677,1357.7440475427682,2016-12-15T15:31:01Z,1357.7440475427682,2016-12-15T15:31:01Z
Fishing,JAS-76,316086,54.79682,18.69658,0,2016-12-15T08:05:08Z,9328.501812384013,2016-12-16T16:21:02Z
Fishing,JAS-76,316086,54.79561,18.84209,9328.501812384013,2016-12-16T16:21:02Z,9328.501812384013,2016-12-16T16:21:02Z
Fishing,JAS-77,315986,54.69513,18.67516,0,2016-12-16T21:17:07Z,14771.180128411339,2016-12-20T04:05:02Z
Fishing,JAS-77,315986,54.58949,18.81434,14771.180128411339,2016-12-20T04:05:02Z,14771.180128411339,2016-12-20T04:05:02Z
Fishing,JAS-78,315930,54.4543,18.99326,0,2016-12-19T08:27:01Z,12367.88078516755,2016-12-19T13:29:01Z
Fishing,JAS-78,315930,54.56546,18.99991,12367.88078516755,2016-12-19T13:29:01Z,12367.88078516755,2016-12-19T13:29:01Z
Fishing,JAS-12,316049,54.63068,18.99728,197.9772104410122,2016-12-15T10:27:02Z,6929.1096708026225,2016-12-15T15:11:02Z
Fishing,JAS-12,316049,54.56837,18.99592,6929.1096708026225,2016-12-15T15:11:02Z,6929.1096708026225,2016-12-15T15:11:02Z
Fishing,JAS-64,315968,54.51767,18.99464,0,2016-12-17T07:35:01Z,14600.285731027745,2016-12-17T15:37:02Z
Fishing,JAS-64,315968,54.64897,18.9963,14600.285731027745,2016-12-17T15:37:02Z,14600.285731027745,2016-12-17T15:37:02Z
Fishing,JAS-74,315929,54.69625,18.67479,0,2016-12-17T20:01:07Z,28799.73639251389,2016-12-19T07:21:02Z
Fishing,JAS-74,315929,54.48427,18.93163,28799.73639251389,2016-12-19T07:21:02Z,28799.73639251389,2016-12-19T07:21:02Z
Fishing,JAS-79,3862045,54.69371,18.67419,0,2016-12-15T16:57:07Z,14813.363808727374,2016-12-16T05:23:02Z
Fishing,JAS-79,3862045,54.62317,18.86956,14813.363808727374,2016-12-16T05:23:02Z,14813.363808727374,2016-12-16T05:23:02Z
Fishing,JAS-80,315979,54.69943,18.99941,82.98548358713366,2016-12-15T08:27:02Z,6081.547714782653,2016-12-15T15:21:02Z
Fishing,JAS-80,315979,54.64479,18.99526,6081.547714782653,2016-12-15T15:21:02Z,6081.547714782653,2016-12-15T15:21:02Z
Fishing,JURMALA,352402,54.7968,18.43028,337.2248411440286,2016-12-18T19:43:07Z,497.4270478443917,2016-12-18T19:45:08Z
Fishing,JURMALA,352402,54.7968,18.42252,497.4270478443917,2016-12-18T19:45:08Z,497.4270478443917,2016-12-18T19:45:08Z
Fishing,KAPER-2 SG-312,315877,54.54259,18.65607,523.4692504575963,2016-12-20T11:01:02Z,1581.6355146117075,2016-12-20T11:07:03Z
Fishing,KAPER-2 SG-312,315877,54.54381,18.6805,1581.6355146117075,2016-12-20T11:07:03Z,1581.6355146117075,2016-12-20T11:07:03Z
Fishing,KAPITAN GERASHCHENKO,181857,54.53149,18.68513,714.2606094454958,2016-12-18T09:53:07Z,1423.3533799678257,2016-12-18T09:55:02Z
Fishing,KAPITAN GERASHCHENKO,181857,54.53154,18.70719,1423.3533799678257,2016-12-18T09:55:02Z,1423.3533799678257,2016-12-18T09:55:02Z
Fishing,KLONDYKE,4221324,57.70365,11.6005,135.63755011014194,2016-12-18T13:01:05Z,2649.784699176806,2016-12-18T14:23:05Z
Fishing,KLONDYKE,4221324,57.67982,11.60038,2649.784699176806,2016-12-18T14:23:05Z,2649.784699176806,2016-12-18T14:23:05Z
Fishing,KOL-143,316331,54.7965,18.41905,0,2016-12-14T11:23:07Z,823.800848842079,2016-12-17T17:41:07Z
Fishing,KOL-143,316331,54.79787,18.43168,823.800848842079,2016-12-17T17:41:07Z,823.800848842079,2016-12-17T17:41:07Z
Fishing,KOL-148,316100,54.79916,18.44166,266.4735900676266,2016-12-15T02:33:07Z,1383.2574241882376,2016-12-18T00:27:07Z
Fishing,KOL-148,316100,54.79731,18.42032,1383.2574241882376,2016-12-18T00:27:07Z,1383.2574241882376,2016-12-18T00:27:07Z
Fishing,KPT.WISNIEWSKI,316237,54.79715,18.42188,0,2016-12-17T06:15:07Z,376.9470756813315,2016-12-17T06:17:08Z
Fishing,KPT.WISNIEWSKI,316237,54.79809,18.42753,376.9470756813315,2016-12-17T06:17:08Z,376.9470756813315,2016-12-17T06:17:08Z
Fishing,KRISTIN,151919,57.60079,11.64452,1381.0467119911893,2016-12-16T11:15:06Z,10439.721931617476,2016-12-20T05:31:06Z
Fishing,KRISTIN,151919,57.60241,11.81972,10439.721931617476,2016-12-20T05:31:06Z,10439.721931617476,2016-12-20T05:31:06Z
Fishing,KRISTINA,352123,54.79707,18.4221,0,2016-12-20T01:25:07Z,859.2414726309954,2016-12-20T01:27:06Z
